Listing_type,Price,Full_address,Street,City,State,Zip_code,Latitude,Longitude,Square_Feet,Lot,Lot_conversion_to_sqft,House_type,Year_build,Parking,Hoa,Zillow_price_per_sqft,Zestimate,Rent_zestimate,House_website
Multi-family home for sale,"$998,000","314 Sumner St, Santa Cruz, CA 95062",314 Sumner St,Santa Cruz,CA,95062,36.970276,-122.006587,"1,100",null,null,Multiple Occupancy,1928,No Data,null,$907,"$1,033,963","$2,800/mo",https://www.zillow.com/homedetails/314-Sumner-St-Santa-Cruz-CA-95062/16113444_zpid/
Multi-family home for sale,"$1,499,000","943 Hillcrest St, El Segundo, CA 90245",943 Hillcrest St,El Segundo,CA,90245,33.93029,-118.425358,"2,040",null,null,Multiple Occupancy,1982,4 spaces,null,$735,"$1,591,898","$5,078/mo",https://www.zillow.com/homedetails/943-Hillcrest-St-El-Segundo-CA-90245/20392165_zpid/
Multi-family home for sale,"$620,000","1334 Emeric Ave, San Pablo, CA 94806",1334 Emeric Ave,San Pablo,CA,94806,37.953932,-122.35604,"1,632",null,null,Multiple Occupancy,1965,No Data,null,$380,"$445,795","$2,500/mo",https://www.zillow.com/homedetails/1334-Emeric-Ave-San-Pablo-CA-94806/18507275_zpid/
Multi-family home for sale,"$849,888","1704 F St, Sacramento, CA 95811",1704 F St,Sacramento,CA,95811,38.581944,-121.481834,600,null,null,Multiple Occupancy,1880,No Data,null,"$1,416",null,null,https://www.zillow.com/homedetails/1704-F-St-Sacramento-CA-95811/2120480913_zpid/
Multi-family home for sale,"$3,095,000","1439 Cedar Ave, Long Beach, CA 90813",1439 Cedar Ave,Long Beach,CA,90813,33.785109,-118.195434,"10,080",null,null,Multiple Occupancy,1928,4 spaces,null,$307,null,null,https://www.zillow.com/homedetails/1439-Cedar-Ave-Long-Beach-CA-90813/2077643034_zpid/
Multi-family home for sale,"$4,600,000","120 35th St, Manhattan Beach, CA 90266",120 35th St,Manhattan Beach,CA,90266,33.899162,-118.418416,"2,554",null,null,Multiple Occupancy,1939,2 spaces,null,"$1,801","$4,601,365","$5,795/mo",https://www.zillow.com/homedetails/120-35th-St-Manhattan-Beach-CA-90266/20420573_zpid/
Multi-family home for sale,"$195,000","1955 Wyandotte Ave, Oroville, CA 95966",1955 Wyandotte Ave,Oroville,CA,95966,39.500134,-121.549492,"1,400",null,null,Multiple Occupancy,1942,2 spaces,null,$139,"$195,000","$1,017/mo",https://www.zillow.com/homedetails/1955-Wyandotte-Ave-Oroville-CA-95966/18234010_zpid/
For sale by owner,"$1,245,000","1245 University Rd, Hopland, CA 95449",1245 University Rd,Hopland,CA,95449,38.97981,-123.094889,"2,600",null,null,Multiple Occupancy,2005,11 spaces,null,$479,null,null,https://www.zillow.com/homedetails/1245-University-Rd-Hopland-CA-95449/2077657370_zpid/
Multi-family home for sale,"$645,000","3187 Rodeo Ave, Chico, CA 95973",3187 Rodeo Ave,Chico,CA,95973,39.750831,-121.896039,"3,699",null,null,Multiple Occupancy,1965,4 spaces,null,$174,"$645,717","$1,895/mo",https://www.zillow.com/homedetails/3187-Rodeo-Ave-Chico-CA-95973/18239947_zpid/
Multi-family home for sale,"$325,000","1565 Elm St, Chico, CA 95928",1565 Elm St,Chico,CA,95928,39.725527,-121.823184,"1,768",null,null,Multiple Occupancy,1982,No Data,null,$184,"$325,957","$1,800/mo",https://www.zillow.com/homedetails/1565-Elm-St-Chico-CA-95928/18218987_zpid/
Multi-family home for sale,"$359,000","13843 Grant St, Moreno Valley, CA 92553",13843 Grant St,Moreno Valley,CA,92553,33.919232,-117.274695,"1,619",null,null,Multiple Occupancy,1949,No Data,null,$222,null,null,https://www.zillow.com/homedetails/13843-Grant-St-Moreno-Valley-CA-92553/2077901751_zpid/
Multi-family home for sale,"$429,900","21061 Nisqually Rd, Apple Valley, CA 92308",21061 Nisqually Rd,Apple Valley,CA,92308,34.486237,-117.204175,"3,072",null,null,Multiple Occupancy,1988,3 spaces,null,$140,"$454,795",$950/mo,https://www.zillow.com/homedetails/21061-Nisqually-Rd-Apple-Valley-CA-92308/53064593_zpid/
Multi-family home for sale,"$1,650,000","3584-86 Villa Ter, San Diego, CA 92104",3584-86 Villa Ter,San Diego,CA,92104,32.743647,-117.136037,"3,179",null,null,Multiple Occupancy,1928,No Data,null,$519,null,null,https://www.zillow.com/homedetails/3584-86-Villa-Ter-San-Diego-CA-92104/295354593_zpid/
Auction,$--,"4335-4335 1/2 Live Oak St, Bell Gardens, CA 90201",4335-4335 1/2 Live Oak St,Bell Gardens,CA,90201,33.967558,-118.183873,"1,092",null,null,Multiple Occupancy,1926,No Data,null,null,null,null,https://www.zillow.com/homedetails/4335-4335-1-2-Live-Oak-St-Bell-Gardens-CA-90201/2079750951_zpid/
Multi-family home for sale,"$450,000","301-305 W Wilson Ave, Ridgecrest, CA 93555",301-305 W Wilson Ave,Ridgecrest,CA,93555,35.617054,-117.674533,"5,148",null,null,Multiple Occupancy,1990,No Data,null,$87,null,null,https://www.zillow.com/homedetails/301-305-W-Wilson-Ave-Ridgecrest-CA-93555/2077970222_zpid/
Multi-family home for sale,"$625,000","14015 Spruce St, Hesperia, CA 92345",14015 Spruce St,Hesperia,CA,92345,34.428557,-117.357211,"4,216",null,null,Multiple Occupancy,1983,4 spaces,null,$148,"$616,705","$1,275/mo",https://www.zillow.com/homedetails/14015-Spruce-St-Hesperia-CA-92345/17437487_zpid/
Multi-family home for sale,"$650,000","1020 Church St, Roseville, CA 95678",1020 Church St,Roseville,CA,95678,38.745754,-121.294956,"2,432",null,null,Multiple Occupancy,1935,1 space,null,$267,"$677,354","$1,895/mo",https://www.zillow.com/homedetails/1020-Church-St-Roseville-CA-95678/188067723_zpid/
Multi-family home for sale,"$980,000","1070 S Sunshine Ave, El Cajon, CA 92020",1070 S Sunshine Ave,El Cajon,CA,92020,32.781076,-116.964836,"3,150",null,null,Multiple Occupancy,1978,No Data,null,$311,null,null,https://www.zillow.com/homedetails/1070-S-Sunshine-Ave-El-Cajon-CA-92020/295358422_zpid/
Multi-family home for sale,"$1,299,900","6337 Miles Ave #a-b, Huntington Park, CA 90255",6337 Miles Ave #A-B,Huntington Park,CA,90255,33.982461,-118.219473,"2,279",null,null,Multiple Occupancy,1922,3 spaces,null,$570,null,null,https://www.zillow.com/homedetails/6337-Miles-Ave-A-B-Huntington-Park-CA-90255/2077653217_zpid/
Multi-family home for sale,"$1,559,000","4901 Romaine St, Los Angeles, CA 90029",4901 Romaine St,Los Angeles,CA,90029,34.088812,-118.298372,"1,646",null,null,Multiple Occupancy,1920,2 spaces,null,$947,"$1,496,639","$3,600/mo",https://www.zillow.com/homedetails/4901-Romaine-St-Los-Angeles-CA-90029/20790508_zpid/
Multi-family home for sale,"$139,900","114 Moneta Ave, Bakersfield, CA 93308",114 Moneta Ave,Bakersfield,CA,93308,35.409821,-119.022453,"1,174",null,null,Multiple Occupancy,1925,1 space,null,$119,"$134,524",$895/mo,https://www.zillow.com/homedetails/114-Moneta-Ave-Bakersfield-CA-93308/18922172_zpid/
Multi-family home for sale,"$999,500","11485 Cumpston St, North Hollywood, CA 91601",11485 Cumpston St,North Hollywood,CA,91601,34.169903,-118.381853,"2,245",null,null,Multiple Occupancy,1950,3 spaces,null,$445,"$1,026,883","$2,800/mo",https://www.zillow.com/homedetails/11485-Cumpston-St-North-Hollywood-CA-91601/20018048_zpid/
Multi-family home for sale,"$650,000","706 S Ditman Ave, Los Angeles, CA 90023",706 S Ditman Ave,Los Angeles,CA,90023,34.02616,-118.189005,"1,536",null,null,Multiple Occupancy,1922,2 spaces,null,$423,"$650,457","$2,350/mo",https://www.zillow.com/homedetails/706-S-Ditman-Ave-Los-Angeles-CA-90023/20652392_zpid/
Multi-family home for sale,"$365,000","1187 W Olive St, San Bernardino, CA 92411",1187 W Olive St,San Bernardino,CA,92411,34.118444,-117.311211,"1,696",null,null,Multiple Occupancy,1954,1 space,null,$215,"$373,380","$1,350/mo",https://www.zillow.com/homedetails/1187-W-Olive-St-San-Bernardino-CA-92411/17223185_zpid/
Multi-family home for sale,"$480,000","321 N Fern Ave, Ontario, CA 91762",321 N Fern Ave,Ontario,CA,91762,34.066492,-117.654992,"1,448",null,null,Multiple Occupancy,1901,3 spaces,null,$331,"$556,896","$1,550/mo",https://www.zillow.com/homedetails/321-N-Fern-Ave-Ontario-CA-91762/17579438_zpid/
Multi-family home for sale,"$2,499,950","5221 Elmwood Ave, Lynwood, CA 90262",5221 Elmwood Ave,Lynwood,CA,90262,33.926953,-118.181087,"5,351",null,null,Multiple Occupancy,1946,11 spaces,null,$467,"$2,498,545","$1,995/mo",https://www.zillow.com/homedetails/5221-Elmwood-Ave-Lynwood-CA-90262/250340156_zpid/
Multi-family home for sale,"$409,000","73030 San Nicholas Ave, Palm Desert, CA 92260",73030 San Nicholas Ave,Palm Desert,CA,92260,33.727319,-116.390611,"1,440",null,null,Multiple Occupancy,1963,2 spaces,null,$284,"$409,000","$1,971/mo",https://www.zillow.com/homedetails/73030-San-Nicholas-Ave-Palm-Desert-CA-92260/18083765_zpid/
Multi-family home for sale,"$750,000","3202 W 110th St, Inglewood, CA 90303",3202 W 110th St,Inglewood,CA,90303,33.935527,-118.328462,"2,696",null,null,Multiple Occupancy,1940,2 spaces,null,$278,"$753,788","$2,641/mo",https://www.zillow.com/homedetails/3202-W-110th-St-Inglewood-CA-90303/20343604_zpid/
Multi-family home for sale,"$875,000","12510 Richards Blvd, Truckee, CA 96161",12510 Richards Blvd,Truckee,CA,96161,39.325799,-120.230914,"2,510",null,null,Multiple Occupancy,1980,No Data,null,$349,"$877,953","$4,000/mo",https://www.zillow.com/homedetails/12510-Richards-Blvd-Truckee-CA-96161/19434466_zpid/
Multi-family home for sale,"$1,483,000","1695 Caminito Aliviado, La Jolla, CA 92037",1695 Caminito Aliviado,La Jolla,CA,92037,32.822116,-117.247003,"3,157",null,null,Multiple Occupancy,1977,2 spaces,null,$470,"$1,483,006","$6,871/mo",https://www.zillow.com/homedetails/1695-Caminito-Aliviado-La-Jolla-CA-92037/16857962_zpid/
Multi-family home for sale,"$799,999","3373 Orange Ave, Signal Hill, CA 90755",3373 Orange Ave,Signal Hill,CA,90755,33.818341,-118.176631,"2,131",null,null,Multiple Occupancy,1939,2 spaces,null,$375,"$809,522","$2,300/mo",https://www.zillow.com/homedetails/3373-Orange-Ave-Signal-Hill-CA-90755/21164718_zpid/
Multi-family home for sale,"$519,000","6200 14th Ave, Sacramento, CA 95820",6200 14th Ave,Sacramento,CA,95820,38.539311,-121.432704,"2,400",null,null,Multiple Occupancy,1962,No Data,null,$216,"$517,779","$1,550/mo",https://www.zillow.com/homedetails/6200-14th-Ave-Sacramento-CA-95820/25810142_zpid/
For sale by owner,"$160,000","423 Beech St, Bakersfield, CA 93304",423 Beech St,Bakersfield,CA,93304,35.362167,-119.035307,820,null,null,Multiple Occupancy,1945,2 spaces,null,$195,"$165,895",$975/mo,https://www.zillow.com/homedetails/423-Beech-St-Bakersfield-CA-93304/18884186_zpid/
Multi-family home for sale,"$749,999","968 W 53rd St E #2, Los Angeles, CA 90037",968 W 53rd St E #2,Los Angeles,CA,90037,33.994136,-118.290346,"2,441",null,null,Multiple Occupancy,1996,2 spaces,null,$307,null,null,https://www.zillow.com/homedetails/968-W-53rd-St-E-2-Los-Angeles-CA-90037/2077655096_zpid/
Multi-family home for sale,"$869,800","3527 Riverside Blvd, Sacramento, CA 95818",3527 Riverside Blvd,Sacramento,CA,95818,38.547477,-121.507226,"3,233",null,null,Multiple Occupancy,1937,3 spaces,null,$269,"$848,399","$1,995/mo",https://www.zillow.com/homedetails/3527-Riverside-Blvd-Sacramento-CA-95818/25796057_zpid/
Multi-family home for sale,"$958,000","436 W Palm Ave, Monrovia, CA 91016",436 W Palm Ave,Monrovia,CA,91016,34.148761,-118.009083,"1,813",null,null,Multiple Occupancy,1932,2 spaces,null,$528,"$965,193","$2,600/mo",https://www.zillow.com/homedetails/436-W-Palm-Ave-Monrovia-CA-91016/21577594_zpid/
Multi-family home for sale,"$459,000","1108 Iowa Ave, Los Banos, CA 93635",1108 Iowa Ave,Los Banos,CA,93635,37.060804,-120.861049,"1,500",null,null,Multiple Occupancy,1952,3 spaces,null,$306,null,null,https://www.zillow.com/homedetails/1108-Iowa-Ave-Los-Banos-CA-93635/2077762107_zpid/
Multi-family home for sale,"$639,000","4249 Floral Dr, Los Angeles, CA 90063",4249 Floral Dr,Los Angeles,CA,90063,34.044451,-118.174139,"1,548",null,null,Multiple Occupancy,1925,5 spaces,null,$413,"$644,295","$2,500/mo",https://www.zillow.com/homedetails/4249-Floral-Dr-Los-Angeles-CA-90063/135571855_zpid/
Multi-family home for sale,"$275,000","15977 Puesta Del Sol Dr, Victorville, CA 92394",15977 Puesta Del Sol Dr,Victorville,CA,92394,34.543066,-117.315695,"1,182",null,null,Multiple Occupancy,1980,2 spaces,null,$233,"$279,467","$1,400/mo",https://www.zillow.com/homedetails/15977-Puesta-Del-Sol-Dr-Victorville-CA-92394/17429991_zpid/
Multi-family home for sale,"$2,498,000","1307 14th St, Santa Monica, CA 90404",1307 14th St,Santa Monica,CA,90404,34.025415,-118.486721,"4,316",null,null,Multiple Occupancy,1956,5 spaces,null,$579,null,null,https://www.zillow.com/homedetails/1307-14th-St-Santa-Monica-CA-90404/2077645040_zpid/
Multi-family home for sale,"$879,000","1117 W Standley St, Ukiah, CA 95482",1117 W Standley St,Ukiah,CA,95482,39.148045,-123.221516,"2,210",null,null,Multiple Occupancy,1948,No Data,null,$398,"$761,658","$2,000/mo",https://www.zillow.com/homedetails/1117-W-Standley-St-Ukiah-CA-95482/72551388_zpid/
Multi-family home for sale,"$2,499,000","1027 3rd St, Encinitas, CA 92024",1027 3rd St,Encinitas,CA,92024,33.038677,-117.294496,"2,600",null,null,Multiple Occupancy,1959,4 spaces,null,$961,null,null,https://www.zillow.com/homedetails/1027-3rd-St-Encinitas-CA-92024/2078148400_zpid/
Multi-family home for sale,"$1,900,000","1327 Bath St, Santa Barbara, CA 93101",1327 Bath St,Santa Barbara,CA,93101,34.421556,-119.710275,"2,633",null,null,Multiple Occupancy,1925,6 spaces,null,$722,null,null,https://www.zillow.com/homedetails/1327-Bath-St-Santa-Barbara-CA-93101/2078508860_zpid/
Multi-family home for sale,"$699,000","1312 Valley St, Hayward, CA 94541",1312 Valley St,Hayward,CA,94541,37.674987,-122.07529,"1,260",null,null,Multiple Occupancy,1948,No Data,null,$555,"$607,072","$2,200/mo",https://www.zillow.com/homedetails/1312-Valley-St-Hayward-CA-94541/24971636_zpid/
Multi-family home for sale,"$410,000","7 N Adelbert Ave, Stockton, CA 95215",7 N Adelbert Ave,Stockton,CA,95215,37.964328,-121.237708,"1,711",null,null,Multiple Occupancy,1949,No Data,null,$240,"$415,838","$1,550/mo",https://www.zillow.com/homedetails/7-N-Adelbert-Ave-Stockton-CA-95215/15333619_zpid/
Multi-family home for sale,"$1,275,000","734 Verona Ct, San Diego, CA 92109",734 Verona Ct,San Diego,CA,92109,32.787923,-117.2537,"1,000",null,null,Multiple Occupancy,1994,No Data,null,"$1,275","$1,239,734","$4,395/mo",https://www.zillow.com/homedetails/734-Verona-Ct-San-Diego-CA-92109/16922512_zpid/
Multi-family home for sale,"$339,900","534 Wilson Ave, Sacramento, CA 95833",534 Wilson Ave,Sacramento,CA,95833,38.613269,-121.47477,"1,556",null,null,Multiple Occupancy,1960,1 space,null,$218,"$350,595","$2,000/mo",https://www.zillow.com/homedetails/534-Wilson-Ave-Sacramento-CA-95833/300342726_zpid/
Multi-family home for sale,"$279,000","66032 Acoma Ave, Desert Hot Springs, CA 92240",66032 Acoma Ave,Desert Hot Springs,CA,92240,33.960748,-116.509544,"1,991",null,null,Multiple Occupancy,1948,No Data,null,$140,"$282,808","$1,500/mo",https://www.zillow.com/homedetails/66032-Acoma-Ave-Desert-Hot-Springs-CA-92240/18099908_zpid/
Multi-family home for sale,"$960,000","801 Natoma St, Folsom, CA 95630",801 Natoma St,Folsom,CA,95630,38.67422,-121.175438,"3,232",null,null,Multiple Occupancy,1910,2 spaces,null,$297,"$941,037","$1,815/mo",https://www.zillow.com/homedetails/801-Natoma-St-Folsom-CA-95630/25873206_zpid/
Multi-family home for sale,"$900,000","10222 England Ave, Inglewood, CA 90303",10222 England Ave,Inglewood,CA,90303,33.942785,-118.329647,"3,079",null,null,Multiple Occupancy,1955,4 spaces,null,$292,"$898,949","$2,700/mo",https://www.zillow.com/homedetails/10222-England-Ave-Inglewood-CA-90303/20342565_zpid/
Multi-family home for sale,"$739,000","2367 247th St, Lomita, CA 90717",2367 247th St,Lomita,CA,90717,33.800939,-118.324959,"1,381",null,null,Multiple Occupancy,1954,2 spaces,null,$535,"$758,172","$2,600/mo",https://www.zillow.com/homedetails/2367-247th-St-Lomita-CA-90717/21282358_zpid/
Multi-family home for sale,"$350,000","8153 Whitlock Ave, San Bernardino, CA 92410",8153 Whitlock Ave,San Bernardino,CA,92410,34.10547,-117.263536,"1,689",null,null,Multiple Occupancy,1945,No Data,null,$207,"$359,704","$1,465/mo",https://www.zillow.com/homedetails/8153-Whitlock-Ave-San-Bernardino-CA-92410/17362828_zpid/
Multi-family home for sale,"$1,150,000","356-358 Day St, San Francisco, CA 94131",356-358 Day St,San Francisco,CA,94131,37.742826,-122.430049,"2,640",null,null,Multiple Occupancy,1900,No Data,null,$436,null,null,https://www.zillow.com/homedetails/356-358-Day-St-San-Francisco-CA-94131/2078755075_zpid/
Multi-family home for sale,"$350,000","13809 Las Entradas, Bakersfield, CA 93314",13809 Las Entradas,Bakersfield,CA,93314,35.355657,-119.155611,"2,280",null,null,Multiple Occupancy,1993,2 spaces,null,$154,"$350,003","$2,102/mo",https://www.zillow.com/homedetails/13809-Las-Entradas-Bakersfield-CA-93314/19013303_zpid/
Multi-family home for sale,"$2,500,000","150 Middle Terrace Rd, Avalon, CA 90704",150 Middle Terrace Rd,Avalon,CA,90704,33.34198,-118.323628,"3,042",null,null,Multiple Occupancy,1927,2 spaces,null,$822,"$2,452,830","$3,800/mo",https://www.zillow.com/homedetails/150-Middle-Terrace-Rd-Avalon-CA-90704/21315685_zpid/
Multi-family home for sale,"$525,000","145 W Fredricks St, Barstow, CA 92311",145 W Fredricks St,Barstow,CA,92311,34.896919,-117.029709,"4,300",null,null,Multiple Occupancy,1963,No Data,null,$122,null,null,https://www.zillow.com/homedetails/145-W-Fredricks-St-Barstow-CA-92311/2077914387_zpid/
Multi-family home for sale,"$625,000","2765 Conejo Dr, San Bernardino, CA 92404",2765 Conejo Dr,San Bernardino,CA,92404,34.142105,-117.259071,"3,336",null,null,Multiple Occupancy,1963,4 spaces,null,$187,"$627,492","$1,350/mo",https://www.zillow.com/homedetails/2765-Conejo-Dr-San-Bernardino-CA-92404/17356660_zpid/
Multi-family home for sale,"$679,000","2050 Pine Ave, Long Beach, CA 90806",2050 Pine Ave,Long Beach,CA,90806,33.794474,-118.192129,"2,426",null,null,Multiple Occupancy,1936,2 spaces,null,$280,"$679,236","$2,500/mo",https://www.zillow.com/homedetails/2050-Pine-Ave-Long-Beach-CA-90806/21196398_zpid/
New construction,"$305,000","9012 Salinan Way, Kelseyville, CA 95451",9012 Salinan Way,Kelseyville,CA,95451,38.961865,-122.739398,"1,200",null,null,Multiple Occupancy,1976,2 spaces,null,$254,"$304,723","$1,400/mo",https://www.zillow.com/homedetails/9012-Salinan-Way-Kelseyville-CA-95451/19104682_zpid/
Multi-family home for sale,"$3,850,000","20062 Pacific Coast Hwy, Malibu, CA 90265",20062 Pacific Coast Hwy,Malibu,CA,90265,34.036969,-118.612269,"1,806",null,null,Multiple Occupancy,1959,3 spaces,null,"$2,132","$2,994,576","$9,500/mo",https://www.zillow.com/homedetails/20062-Pacific-Coast-Hwy-Malibu-CA-90265/20551693_zpid/
Multi-family home for sale,"$265,000","2680 S Cedar Ave, Fresno, CA 93725",2680 S Cedar Ave,Fresno,CA,93725,36.704011,-119.755066,"2,456",null,null,Multiple Occupancy,1930,No Data,null,$108,"$177,044","$1,295/mo",https://www.zillow.com/homedetails/2680-S-Cedar-Ave-Fresno-CA-93725/18773832_zpid/
Multi-family home for sale,"$1,049,000","563 Emory St, Imperial Beach, CA 91932",563 Emory St,Imperial Beach,CA,91932,32.58663,-117.112711,,null,null,Multiple Occupancy,1980,No Data,null,null,null,null,https://www.zillow.com/homedetails/563-Emory-St-Imperial-Beach-CA-91932/2077896364_zpid/
Multi-family home for sale,"$349,999","512 Railroad Ave, Winterhaven, CA 92283",512 Railroad Ave,Winterhaven,CA,92283,32.738912,-114.634439,"2,800",null,null,Multiple Occupancy,1983,20 spaces,null,$125,null,null,https://www.zillow.com/homedetails/512-Railroad-Ave-Winterhaven-CA-92283/18868621_zpid/
Multi-family home for sale,"$1,995,000","1005 N Harper Ave, West Hollywood, CA 90046",1005 N Harper Ave,West Hollywood,CA,90046,34.088948,-118.369436,"2,331",null,null,Multiple Occupancy,1924,2 spaces,null,$856,"$2,097,019","$4,200/mo",https://www.zillow.com/homedetails/1005-N-Harper-Ave-West-Hollywood-CA-90046/20787789_zpid/
Multi-family home for sale,"$780,000","5202 Everett Ave, Maywood, CA 90270",5202 Everett Ave,Maywood,CA,90270,33.995082,-118.199745,"1,600",null,null,Multiple Occupancy,1947,8 spaces,null,$488,"$780,004","$2,350/mo",https://www.zillow.com/homedetails/5202-Everett-Ave-Maywood-CA-90270/21068335_zpid/
Multi-family home for sale,"$955,000","6009 Colfax Ave, North Hollywood, CA 91606",6009 Colfax Ave,North Hollywood,CA,91606,34.179756,-118.388121,"1,620",null,null,Multiple Occupancy,1940,3 spaces,null,$590,"$862,074","$3,000/mo",https://www.zillow.com/homedetails/6009-Colfax-Ave-North-Hollywood-CA-91606/20010287_zpid/
Multi-family home for sale,"$1,150,000","1438 W Gardena Blvd, Gardena, CA 90247",1438 W Gardena Blvd,Gardena,CA,90247,33.881741,-118.301124,"3,349",null,null,Multiple Occupancy,1990,3 spaces,null,$343,"$1,140,055","$2,691/mo",https://www.zillow.com/homedetails/1438-W-Gardena-Blvd-Gardena-CA-90247/20980700_zpid/
Multi-family home for sale,"$899,000","5366 Circle Dr, Sherman Oaks, CA 91401",5366 Circle Dr,Sherman Oaks,CA,91401,34.167889,-118.446801,"2,265",null,null,Multiple Occupancy,1948,3 spaces,null,$397,"$1,145,183","$2,950/mo",https://www.zillow.com/homedetails/5366-Circle-Dr-Sherman-Oaks-CA-91401/19975181_zpid/
Multi-family home for sale,"$529,900","8151 Silkwood Cir #44, Huntington Beach, CA 92646",8151 Silkwood Cir #44,Huntington Beach,CA,92646,33.689954,-117.986332,"1,100",null,null,Multiple Occupancy,1975,2 spaces,null,$482,"$533,438","$2,650/mo",https://www.zillow.com/homedetails/8151-Silkwood-Cir-44-Huntington-Beach-CA-92646/25696930_zpid/
Multi-family home for sale,"$597,500","1003 20th St, Paso Robles, CA 93446",1003 20th St,Paso Robles,CA,93446,35.635414,-120.688504,"3,100",null,null,Multiple Occupancy,1985,No Data,null,$193,"$604,526","$1,995/mo",https://www.zillow.com/homedetails/1003-20th-St-Paso-Robles-CA-93446/15395817_zpid/
Multi-family home for sale,"$3,195,000","2323-2325 Jones St, San Francisco, CA 94133",2323-2325 Jones St,San Francisco,CA,94133,37.802761,-122.416761,"2,668",null,null,Multiple Occupancy,1921,No Data,null,"$1,198",null,null,https://www.zillow.com/homedetails/2323-2325-Jones-St-San-Francisco-CA-94133/2077689130_zpid/
Multi-family home for sale,"$1,500,000","24050 S Highway 1, Pt Arena, CA 95468",24050 S Highway 1,Pt Arena,CA,95468,38.915798,-123.702983,"9,600",null,null,Multiple Occupancy,No Data,No Data,null,$156,null,null,https://www.zillow.com/homedetails/24050-S-Highway-1-Pt-Arena-CA-95468/2077754737_zpid/
Multi-family home for sale,"$524,999","2101 Belshaw St, Mojave, CA 93501",2101 Belshaw St,Mojave,CA,93501,35.055878,-118.17096,"5,906",null,null,Multiple Occupancy,1981,No Data,null,$89,"$510,989",$995/mo,https://www.zillow.com/homedetails/2101-Belshaw-St-Mojave-CA-93501/2103680325_zpid/
Multi-family home for sale,"$549,000","2814-2816 38th Ave, Oakland, CA 94619",2814-2816 38th Ave,Oakland,CA,94619,37.791939,-122.195566,"1,344",null,null,Multiple Occupancy,1943,No Data,null,$408,null,null,https://www.zillow.com/homedetails/2814-2816-38th-Ave-Oakland-CA-94619/2077793485_zpid/
Multi-family home for sale,"$1,595,000","311 4th St, Pacific Grove, CA 93950",311 4th St,Pacific Grove,CA,93950,36.616987,-121.910085,"3,164",null,null,Multiple Occupancy,1991,6 spaces,null,$504,"$1,580,884","$3,295/mo",https://www.zillow.com/homedetails/311-4th-St-Pacific-Grove-CA-93950/19324188_zpid/
Multi-family home for sale,"$364,900","306 Cordelia St #308, Suisun City, CA 94585",306 Cordelia St #308,Suisun City,CA,94585,38.236005,-122.04186,"1,280",null,null,Multiple Occupancy,1953,No Data,null,$285,null,null,https://www.zillow.com/homedetails/306-Cordelia-St-308-Suisun-City-CA-94585/2077766315_zpid/
Multi-family home for sale,"$699,900","975 W Devonshire Ave, Hemet, CA 92543",975 W Devonshire Ave,Hemet,CA,92543,33.750801,-116.981286,"3,400",null,null,Multiple Occupancy,1989,2 spaces,null,$206,null,null,https://www.zillow.com/homedetails/975-W-Devonshire-Ave-Hemet-CA-92543/2077714518_zpid/
Multi-family home for sale,"$7,950,000","702-708 Whiting Ct, San Diego, CA 92109",702-708 Whiting Ct,San Diego,CA,92109,32.788215,-117.254417,,null,null,Multiple Occupancy,2016,No Data,null,null,null,null,https://www.zillow.com/homedetails/702-708-Whiting-Ct-San-Diego-CA-92109/2078087509_zpid/
Multi-family home for sale,"$1,569,000","1832 Micheltorena St, Los Angeles, CA 90026",1832 Micheltorena St,Los Angeles,CA,90026,34.093776,-118.271489,"2,376",null,null,Multiple Occupancy,1926,2 spaces,null,$660,"$1,611,618","$3,200/mo",https://www.zillow.com/homedetails/1832-Micheltorena-St-Los-Angeles-CA-90026/20747746_zpid/
Multi-family home for sale,"$1,248,888","234 S Virginia Ave, Azusa, CA 91702",234 S Virginia Ave,Azusa,CA,91702,34.118713,-117.917949,"3,854",null,null,Multiple Occupancy,1991,6 spaces,null,$324,"$1,224,858","$2,500/mo",https://www.zillow.com/homedetails/234-S-Virginia-Ave-Azusa-CA-91702/21627889_zpid/
Multi-family home for sale,"$889,000","1325 N Kenwood St, Burbank, CA 91505",1325 N Kenwood St,Burbank,CA,91505,34.173035,-118.352046,"1,723",null,null,Multiple Occupancy,1948,2 spaces,null,$516,"$914,076","$2,800/mo",https://www.zillow.com/homedetails/1325-N-Kenwood-St-Burbank-CA-91505/20061769_zpid/
Multi-family home for sale,"$425,000","66756 1st St, Desert Hot Springs, CA 92240",66756 1st St,Desert Hot Springs,CA,92240,33.962669,-116.49671,"2,800",null,null,Multiple Occupancy,2005,4 spaces,null,$152,null,null,https://www.zillow.com/homedetails/66756-1st-St-Desert-Hot-Springs-CA-92240/2077916122_zpid/
Multi-family home for sale,"$469,000","795 & 793 W 7th St, Pomona, CA 91766",795 & 793 W 7th St,Pomona,CA,91766,34.052939,-117.764174,"1,744",null,null,Multiple Occupancy,1944,No Data,null,$269,null,null,https://www.zillow.com/homedetails/795-793-W-7th-St-Pomona-CA-91766/2078141348_zpid/
Multi-family home for sale,"$1,495,000","3221-3223 Market St, San Francisco, CA 94114",3221-3223 Market St,San Francisco,CA,94114,37.759195,-122.444663,"1,670",null,null,Multiple Occupancy,1908,No Data,null,$895,null,null,https://www.zillow.com/homedetails/3221-3223-Market-St-San-Francisco-CA-94114/2077716390_zpid/
Multi-family home for sale,"$829,000","807 E Cliff Dr, Santa Cruz, CA 95060",807 E Cliff Dr,Santa Cruz,CA,95060,36.968846,-122.015163,"1,256",null,null,Multiple Occupancy,1908,No Data,null,$660,"$845,918","$2,850/mo",https://www.zillow.com/homedetails/807-E-Cliff-Dr-Santa-Cruz-CA-95060/16111897_zpid/
Multi-family home for sale,"$1,250,000","4100 Tilden Ave, Culver City, CA 90232",4100 Tilden Ave,Culver City,CA,90232,34.009015,-118.409555,"1,292",null,null,Multiple Occupancy,1953,4 spaces,null,$967,"$1,214,142","$3,750/mo",https://www.zillow.com/homedetails/4100-Tilden-Ave-Culver-City-CA-90232/20436363_zpid/
Multi-family home for sale,"$998,000","417 W Fairview Ave, San Gabriel, CA 91776",417 W Fairview Ave,San Gabriel,CA,91776,34.090106,-118.105536,"2,185",null,null,Multiple Occupancy,1950,2 spaces,null,$457,"$1,011,815","$2,700/mo",https://www.zillow.com/homedetails/417-W-Fairview-Ave-San-Gabriel-CA-91776/20719847_zpid/
Multi-family home for sale,"$900,000","5356 S Harcourt Ave, Los Angeles, CA 90043",5356 S Harcourt Ave,Los Angeles,CA,90043,33.993322,-118.340791,"2,503",null,null,Multiple Occupancy,1949,4 spaces,null,$360,"$900,006","$2,950/mo",https://www.zillow.com/homedetails/5356-S-Harcourt-Ave-Los-Angeles-CA-90043/20564472_zpid/
Multi-family home for sale,"$659,000","2601 13th Ave, Oakland, CA 94606",2601 13th Ave,Oakland,CA,94606,37.79793,-122.236753,"1,771",null,null,Multiple Occupancy,1939,2 spaces,null,$372,"$726,526","$2,695/mo",https://www.zillow.com/homedetails/2601-13th-Ave-Oakland-CA-94606/24761613_zpid/
Multi-family home for sale,"$680,000","3933 Eunice Ave, El Monte, CA 91731",3933 Eunice Ave,El Monte,CA,91731,34.080507,-118.053721,"1,324",null,null,Multiple Occupancy,1930,4 spaces,null,$514,"$698,984","$2,200/mo",https://www.zillow.com/homedetails/3933-Eunice-Ave-El-Monte-CA-91731/21613332_zpid/
For sale by owner,"$735,000","1460 Serrano Pl, Redding, CA 96003",1460 Serrano Pl,Redding,CA,96003,40.589937,-122.34527,"4,218",null,null,Multiple Occupancy,2000,8 spaces,null,$174,"$516,937","$1,900/mo",https://www.zillow.com/homedetails/1460-Serrano-Pl-Redding-CA-96003/15220953_zpid/
Multi-family home for sale,"$1,788,000","3144-3146 Anza St, San Francisco, CA 94121",3144-3146 Anza St,San Francisco,CA,94121,37.778425,-122.481885,"2,360",null,null,Multiple Occupancy,1919,No Data,null,$758,null,null,https://www.zillow.com/homedetails/3144-3146-Anza-St-San-Francisco-CA-94121/2077784203_zpid/
Multi-family home for sale,"$1,795,000","1455-1459 Broderick St, San Francisco, CA 94115",1455-1459 Broderick St,San Francisco,CA,94115,37.783881,-122.441546,"4,324",null,null,Multiple Occupancy,1905,No Data,null,$415,null,null,https://www.zillow.com/homedetails/1455-1459-Broderick-St-San-Francisco-CA-94115/2077724011_zpid/
Multi-family home for sale,"$998,000","1285 Bellevue Ave, Los Angeles, CA 90026",1285 Bellevue Ave,Los Angeles,CA,90026,34.068,-118.253236,"2,880",null,null,Multiple Occupancy,1906,No Data,null,$347,"$1,043,367","$3,000/mo",https://www.zillow.com/homedetails/1285-Bellevue-Ave-Los-Angeles-CA-90026/20740332_zpid/
Multi-family home for sale,"$1,645,000","715 Hope St, Mountain View, CA 94041",715 Hope St,Mountain View,CA,94041,37.386988,-122.081816,"1,296",null,null,Multiple Occupancy,1940,2 spaces,null,"$1,269","$1,645,016","$3,135/mo",https://www.zillow.com/homedetails/715-Hope-St-Mountain-View-CA-94041/153171931_zpid/
Multi-family home for sale,"$899,000","1144 Peralta St, Oakland, CA 94607",1144 Peralta St,Oakland,CA,94607,37.809777,-122.294879,"2,156",null,null,Multiple Occupancy,1885,No Data,null,$417,"$965,851","$2,995/mo",https://www.zillow.com/homedetails/1144-Peralta-St-Oakland-CA-94607/24739054_zpid/
Multi-family home for sale,"$799,000","2210 D St, Bakersfield, CA 93301",2210 D St,Bakersfield,CA,93301,35.379449,-119.025596,"4,020",null,null,Multiple Occupancy,1951,4 spaces,null,$199,null,null,https://www.zillow.com/homedetails/2210-D-St-Bakersfield-CA-93301/2077703722_zpid/
Multi-family home for sale,"$788,888","765 Delano St, San Lorenzo, CA 94580",765 Delano St,San Lorenzo,CA,94580,37.693456,-122.120602,"1,890",null,null,Multiple Occupancy,1952,No Data,null,$417,"$859,991","$2,700/mo",https://www.zillow.com/homedetails/765-Delano-St-San-Lorenzo-CA-94580/24894922_zpid/
Multi-family home for sale,"$789,000","618 S Coast Hwy, Oceanside, CA 92054",618 S Coast Hwy,Oceanside,CA,92054,33.189178,-117.373498,"1,191",null,null,Multiple Occupancy,1919,No Data,null,$662,"$789,006","$2,450/mo",https://www.zillow.com/homedetails/618-S-Coast-Hwy-Oceanside-CA-92054/2107199916_zpid/
Multi-family home for sale,"$2,975,000","243 Date Ave, Imperial Beach, CA 91932",243 Date Ave,Imperial Beach,CA,91932,32.580793,-117.128575,"4,292",null,null,Multiple Occupancy,1993,8 spaces,null,$693,"$2,007,865","$5,695/mo",https://www.zillow.com/homedetails/243-Date-Ave-Imperial-Beach-CA-91932/82934532_zpid/
Multi-family home for sale,"$279,900","1320 N Irwin St, Hanford, CA 93230",1320 N Irwin St,Hanford,CA,93230,36.339689,-119.64817,"1,814",null,null,Multiple Occupancy,1898,3 spaces,null,$154,"$279,766","$1,450/mo",https://www.zillow.com/homedetails/1320-N-Irwin-St-Hanford-CA-93230/19061969_zpid/
Multi-family home for sale,"$649,999","321 N Indiana St, Los Angeles, CA 90063",321 N Indiana St,Los Angeles,CA,90063,34.038865,-118.192593,928,null,null,Multiple Occupancy,1923,4 spaces,null,$700,"$526,832","$2,400/mo",https://www.zillow.com/homedetails/321-N-Indiana-St-Los-Angeles-CA-90063/20631750_zpid/
Multi-family home for sale,"$699,000","3000 3rd Ave, Sacramento, CA 95817",3000 3rd Ave,Sacramento,CA,95817,38.553157,-121.474984,"1,527",null,null,Multiple Occupancy,1890,2 spaces,null,$458,"$689,752","$1,695/mo",https://www.zillow.com/homedetails/3000-3rd-Ave-Sacramento-CA-95817/25791618_zpid/
Multi-family home for sale,"$1,588,000","1657 Merrill Dr, San Jose, CA 95124",1657 Merrill Dr,San Jose,CA,95124,37.241903,-121.907392,"3,200",null,null,Multiple Occupancy,1963,3 spaces,null,$496,"$1,703,757","$2,650/mo",https://www.zillow.com/homedetails/1657-Merrill-Dr-San-Jose-CA-95124/153441613_zpid/
Multi-family home for sale,"$325,000","2900 Chester Ln, Bakersfield, CA 93304",2900 Chester Ln,Bakersfield,CA,93304,35.365162,-119.035257,"2,396",null,null,Multiple Occupancy,1927,4 spaces,null,$136,"$267,173","$1,300/mo",https://www.zillow.com/homedetails/2900-Chester-Ln-Bakersfield-CA-93304/18883364_zpid/
Multi-family home for sale,"$850,000","31514 Highway 94, Campo, CA 91906",31514 Highway 94,Campo,CA,91906,32.629497,-116.471338,"1,810",null,null,Multiple Occupancy,1970,6 spaces,null,$470,"$850,004","$1,875/mo",https://www.zillow.com/homedetails/31514-Highway-94-Campo-CA-91906/2133941854_zpid/
Multi-family home for sale,"$399,000","1019 Pacific Ave, Salinas, CA 93905",1019 Pacific Ave,Salinas,CA,93905,36.688208,-121.616094,"1,935",null,null,Multiple Occupancy,1947,No Data,null,$206,"$406,779","$1,545/mo",https://www.zillow.com/homedetails/1019-Pacific-Ave-Salinas-CA-93905/300083927_zpid/
Multi-family home for sale,"$750,000","117 W Greenwood Ave, La Habra, CA 90631",117 W Greenwood Ave,La Habra,CA,90631,33.937112,-117.94697,"2,200",null,null,Multiple Occupancy,1929,3 spaces,null,$341,"$760,784","$2,900/mo",https://www.zillow.com/homedetails/117-W-Greenwood-Ave-La-Habra-CA-90631/25107495_zpid/
Multi-family home for sale,"$295,000","216 19th Ave, Delano, CA 93215",216 19th Ave,Delano,CA,93215,35.781147,-119.256602,"2,137",null,null,Multiple Occupancy,1973,2 spaces,null,$138,"$295,001","$1,700/mo",https://www.zillow.com/homedetails/216-19th-Ave-Delano-CA-93215/19014258_zpid/
Multi-family home for sale,"$236,000","411 W Elm St, Hanford, CA 93230",411 W Elm St,Hanford,CA,93230,36.333633,-119.651311,"1,620",null,null,Multiple Occupancy,1977,No Data,null,$146,"$237,425","$1,250/mo",https://www.zillow.com/homedetails/411-W-Elm-St-Hanford-CA-93230/19062517_zpid/
Multi-family home for sale,"$830,000","6503 Ira Ave, Bell Gardens, CA 90201",6503 Ira Ave,Bell Gardens,CA,90201,33.972589,-118.152684,"2,170",null,null,Multiple Occupancy,1942,2 spaces,null,$382,"$830,071","$2,400/mo",https://www.zillow.com/homedetails/6503-Ira-Ave-Bell-Gardens-CA-90201/21078185_zpid/
Multi-family home for sale,"$850,000","611 W 74th St, Los Angeles, CA 90044",611 W 74th St,Los Angeles,CA,90044,33.972961,-118.284388,"2,868",null,null,Multiple Occupancy,1925,No Data,null,$296,null,null,https://www.zillow.com/homedetails/611-W-74th-St-Los-Angeles-CA-90044/250339349_zpid/
Multi-family home for sale,"$699,000","3000 3rd Ave, Sacramento, CA 95817",3000 3rd Ave,Sacramento,CA,95817,38.553157,-121.474984,"1,527",null,null,Multiple Occupancy,1890,2 spaces,null,$458,"$689,752","$1,695/mo",https://www.zillow.com/homedetails/3000-3rd-Ave-Sacramento-CA-95817/25791618_zpid/
Multi-family home for sale,"$1,588,000","1657 Merrill Dr, San Jose, CA 95124",1657 Merrill Dr,San Jose,CA,95124,37.241903,-121.907392,"3,200",null,null,Multiple Occupancy,1963,3 spaces,null,$496,"$1,703,757","$2,650/mo",https://www.zillow.com/homedetails/1657-Merrill-Dr-San-Jose-CA-95124/153441613_zpid/
Multi-family home for sale,"$325,000","2900 Chester Ln, Bakersfield, CA 93304",2900 Chester Ln,Bakersfield,CA,93304,35.365162,-119.035257,"2,396",null,null,Multiple Occupancy,1927,4 spaces,null,$136,"$267,173","$1,300/mo",https://www.zillow.com/homedetails/2900-Chester-Ln-Bakersfield-CA-93304/18883364_zpid/
Multi-family home for sale,"$850,000","31514 Highway 94, Campo, CA 91906",31514 Highway 94,Campo,CA,91906,32.629497,-116.471338,"1,810",null,null,Multiple Occupancy,1970,6 spaces,null,$470,"$850,004","$1,875/mo",https://www.zillow.com/homedetails/31514-Highway-94-Campo-CA-91906/2133941854_zpid/
Multi-family home for sale,"$399,000","1019 Pacific Ave, Salinas, CA 93905",1019 Pacific Ave,Salinas,CA,93905,36.688208,-121.616094,"1,935",null,null,Multiple Occupancy,1947,No Data,null,$206,"$406,779","$1,545/mo",https://www.zillow.com/homedetails/1019-Pacific-Ave-Salinas-CA-93905/300083927_zpid/
Multi-family home for sale,"$750,000","117 W Greenwood Ave, La Habra, CA 90631",117 W Greenwood Ave,La Habra,CA,90631,33.937112,-117.94697,"2,200",null,null,Multiple Occupancy,1929,3 spaces,null,$341,"$760,784","$2,900/mo",https://www.zillow.com/homedetails/117-W-Greenwood-Ave-La-Habra-CA-90631/25107495_zpid/
Multi-family home for sale,"$295,000","216 19th Ave, Delano, CA 93215",216 19th Ave,Delano,CA,93215,35.781147,-119.256602,"2,137",null,null,Multiple Occupancy,1973,2 spaces,null,$138,"$295,001","$1,700/mo",https://www.zillow.com/homedetails/216-19th-Ave-Delano-CA-93215/19014258_zpid/
Multi-family home for sale,"$236,000","411 W Elm St, Hanford, CA 93230",411 W Elm St,Hanford,CA,93230,36.333633,-119.651311,"1,620",null,null,Multiple Occupancy,1977,No Data,null,$146,"$237,425","$1,250/mo",https://www.zillow.com/homedetails/411-W-Elm-St-Hanford-CA-93230/19062517_zpid/
Multi-family home for sale,"$830,000","6503 Ira Ave, Bell Gardens, CA 90201",6503 Ira Ave,Bell Gardens,CA,90201,33.972589,-118.152684,"2,170",null,null,Multiple Occupancy,1942,2 spaces,null,$382,"$830,071","$2,400/mo",https://www.zillow.com/homedetails/6503-Ira-Ave-Bell-Gardens-CA-90201/21078185_zpid/
Multi-family home for sale,"$850,000","611 W 74th St, Los Angeles, CA 90044",611 W 74th St,Los Angeles,CA,90044,33.972961,-118.284388,"2,868",null,null,Multiple Occupancy,1925,No Data,null,$296,null,null,https://www.zillow.com/homedetails/611-W-74th-St-Los-Angeles-CA-90044/250339349_zpid/
Multi-family home for sale,"$719,000","7102 11th Ave, Los Angeles, CA 90043",7102 11th Ave,Los Angeles,CA,90043,33.975525,-118.329097,"1,735",null,null,Multiple Occupancy,1949,6 spaces,null,$414,"$724,399","$2,395/mo",https://www.zillow.com/homedetails/7102-11th-Ave-Los-Angeles-CA-90043/20326913_zpid/
Multi-family home for sale,"$599,900","417 E 65th St, Los Angeles, CA 90003",417 E 65th St,Los Angeles,CA,90003,33.980895,-118.266855,"1,644",null,null,Multiple Occupancy,1924,3 spaces,null,$365,"$600,758","$2,395/mo",https://www.zillow.com/homedetails/417-E-65th-St-Los-Angeles-CA-90003/59893678_zpid/
Multi-family home for sale,"$850,000","1746 Martina Ave, Torrance, CA 90501",1746 Martina Ave,Torrance,CA,90501,33.830034,-118.318525,"1,485",null,null,Multiple Occupancy,1923,3 spaces,null,$572,"$850,097","$2,500/mo",https://www.zillow.com/homedetails/1746-Martina-Ave-Torrance-CA-90501/21271305_zpid/
Multi-family home for sale,"$490,000","1419-21 Flo Dr, Alpine, CA 91901",1419-21 Flo Dr,Alpine,CA,91901,32.835439,-116.772971,"1,100",null,null,Multiple Occupancy,1952,4 spaces,null,$445,"$494,527","$2,300/mo",https://www.zillow.com/homedetails/1419-21-Flo-Dr-Alpine-CA-91901/16903708_zpid/
Multi-family home for sale,"$1,050,000","741 E Claremont St, Pasadena, CA 91104",741 E Claremont St,Pasadena,CA,91104,34.167204,-118.135263,"1,960",null,null,Multiple Occupancy,1930,2 spaces,null,$536,"$1,087,603","$2,700/mo",https://www.zillow.com/homedetails/741-E-Claremont-St-Pasadena-CA-91104/20866211_zpid/
Multi-family home for sale,"$799,000","1260 Stafford St, San Luis Obispo, CA 93405",1260 Stafford St,San Luis Obispo,CA,93405,35.292256,-120.659721,"1,144",null,null,Multiple Occupancy,1954,2 spaces,null,$698,"$799,006","$2,700/mo",https://www.zillow.com/homedetails/1260-Stafford-St-San-Luis-Obispo-CA-93405/15426536_zpid/
Multi-family home for sale,"$1,425,000","4921 Del Mar Ave, San Diego, CA 92107",4921 Del Mar Ave,San Diego,CA,92107,32.740707,-117.254273,600,null,null,Multiple Occupancy,1940,No Data,null,"$2,375","$1,406,940","$2,395/mo",https://www.zillow.com/homedetails/4921-Del-Mar-Ave-San-Diego-CA-92107/295352989_zpid/
Multi-family home for sale,"$725,000","707 Kentucky St Lot 717, Petaluma, CA 94952",707 Kentucky St LOT 717,Petaluma,CA,94952,38.241786,-122.646061,"1,456",null,null,Multiple Occupancy,1962,No Data,null,$498,null,null,https://www.zillow.com/homedetails/707-Kentucky-St-LOT-717-Petaluma-CA-94952/2078325939_zpid/
Multi-family home for sale,"$435,000","4218 Casa Blanca Ln, Carmichael, CA 95608",4218 Casa Blanca Ln,Carmichael,CA,95608,38.642172,-121.333825,"2,168",null,null,Multiple Occupancy,1976,2 spaces,null,$201,"$434,076","$1,695/mo",https://www.zillow.com/homedetails/4218-Casa-Blanca-Ln-Carmichael-CA-95608/26028981_zpid/
Multi-family home for sale,"$825,000","412 S Mcbride Ave, Los Angeles, CA 90022",412 S Mcbride Ave,Los Angeles,CA,90022,34.03116,-118.1678,"1,350",null,null,Multiple Occupancy,1929,1 space,null,$611,"$829,007","$2,350/mo",https://www.zillow.com/homedetails/412-S-Mcbride-Ave-Los-Angeles-CA-90022/20655997_zpid/
Multi-family home for sale,"$1,195,000","3302 Hope St, Huntington Park, CA 90255",3302 Hope St,Huntington Park,CA,90255,33.96806,-118.208898,"2,656",null,null,Multiple Occupancy,1964,6 spaces,null,$450,"$1,195,001","$2,350/mo",https://www.zillow.com/homedetails/3302-Hope-St-Huntington-Park-CA-90255/21031510_zpid/
Multi-family home for sale,"$1,950,000","648-652 S Van Ness Ave, San Francisco, CA 94110",648-652 S Van Ness Ave,San Francisco,CA,94110,37.762706,-122.417605,"4,275",null,null,Multiple Occupancy,1911,No Data,null,$456,null,null,https://www.zillow.com/homedetails/648-652-S-Van-Ness-Ave-San-Francisco-CA-94110/2077661366_zpid/
Multi-family home for sale,"$329,950","7419 N El Dorado St, Stockton, CA 95207",7419 N El Dorado St,Stockton,CA,95207,38.018152,-121.315399,"1,860",null,null,Multiple Occupancy,1968,2 spaces,null,$177,"$320,879","$1,600/mo",https://www.zillow.com/homedetails/7419-N-El-Dorado-St-Stockton-CA-95207/15286061_zpid/
Multi-family home for sale,"$714,990","227 Turner Ave, Fullerton, CA 92833",227 Turner Ave,Fullerton,CA,92833,33.867435,-117.979558,"1,900",null,null,Multiple Occupancy,1960,2 spaces,null,$376,"$714,995","$2,400/mo",https://www.zillow.com/homedetails/227-Turner-Ave-Fullerton-CA-92833/2134546190_zpid/
Auction,$--,"907-909 E Mountain View Ter, Alhambra, CA 91801",907-909 E Mountain View Ter,Alhambra,CA,91801,34.096265,-118.114215,"2,279",null,null,Multiple Occupancy,1930,No Data,null,null,null,null,https://www.zillow.com/homedetails/907-909-E-Mountain-View-Ter-Alhambra-CA-91801/2078094437_zpid/
New construction,"$1,649,000","2807 S El Camino Real, San Clemente, CA 92672",2807 S El Camino Real,San Clemente,CA,92672,33.406452,-117.598232,"2,691",null,null,Multiple Occupancy,2020,5 spaces,null,$613,null,null,https://www.zillow.com/homedetails/2807-S-El-Camino-Real-San-Clemente-CA-92672/2077731923_zpid/
Multi-family home for sale,"$683,000","735 W Santa Cruz St, San Pedro, CA 90731",735 W Santa Cruz St,San Pedro,CA,90731,33.744335,-118.293301,"2,536",null,null,Multiple Occupancy,1924,3 spaces,null,$269,"$683,006","$1,995/mo",https://www.zillow.com/homedetails/735-W-Santa-Cruz-St-San-Pedro-CA-90731/250343813_zpid/
Multi-family home for sale,"$949,000","2520 10th St, Berkeley, CA 94710",2520 10th St,Berkeley,CA,94710,37.85993,-122.290663,"1,146",null,null,Multiple Occupancy,1923,2 spaces,null,$828,"$1,050,440","$2,890/mo",https://www.zillow.com/homedetails/2520-10th-St-Berkeley-CA-94710/24832679_zpid/
Multi-family home for sale,"$650,000","364 W 16th St, San Pedro, CA 90731",364 W 16th St,San Pedro,CA,90731,33.729929,-118.284918,"2,274",null,null,Multiple Occupancy,1963,2 spaces,null,$286,"$658,465","$2,498/mo",https://www.zillow.com/homedetails/364-W-16th-St-San-Pedro-CA-90731/21308890_zpid/
Multi-family home for sale,"$499,000","8645 Mirabel Rd, Forestville, CA 95436",8645 Mirabel Rd,Forestville,CA,95436,38.492414,-122.895342,998,null,null,Multiple Occupancy,1950,4 spaces,null,$500,"$514,806","$1,950/mo",https://www.zillow.com/homedetails/8645-Mirabel-Rd-Forestville-CA-95436/15815786_zpid/
Multi-family home for sale,"$380,000","35279-81 Beech Ave, Yucaipa, CA 92399",35279-81 Beech Ave,Yucaipa,CA,92399,34.035657,-117.034983,"1,630",null,null,Multiple Occupancy,1926,No Data,null,$233,null,null,https://www.zillow.com/homedetails/35279-81-Beech-Ave-Yucaipa-CA-92399/2078269587_zpid/
Multi-family home for sale,"$388,900","66673 Ironwood Dr, Desert Hot Springs, CA 92240",66673 Ironwood Dr,Desert Hot Springs,CA,92240,33.950205,-116.497866,"2,442",null,null,Multiple Occupancy,2006,4 spaces,null,$159,null,null,https://www.zillow.com/homedetails/66673-Ironwood-Dr-Desert-Hot-Springs-CA-92240/2078053705_zpid/
Multi-family home for sale,"$575,000","3474 Holding St #3, Riverside, CA 92501",3474 Holding St #3,Riverside,CA,92501,33.991969,-117.36401,"2,212",null,null,Multiple Occupancy,1956,6 spaces,null,$260,null,null,https://www.zillow.com/homedetails/3474-Holding-St-3-Riverside-CA-92501/2077757016_zpid/
Multi-family home for sale,"$1,850,000","238 Barbara Ave, Solana Beach, CA 92075",238 Barbara Ave,Solana Beach,CA,92075,32.994501,-117.269043,"1,500",null,null,Multiple Occupancy,1930,2 spaces,null,"$1,233","$1,788,402","$5,000/mo",https://www.zillow.com/homedetails/238-Barbara-Ave-Solana-Beach-CA-92075/16727358_zpid/
Multi-family home for sale,"$1,475,000","1461-1463 N Vulcan Ave, Encinitas, CA 92024",1461-1463 N Vulcan Ave,Encinitas,CA,92024,33.072982,-117.304392,,null,null,Multiple Occupancy,1961,No Data,null,null,null,null,https://www.zillow.com/homedetails/1461-1463-N-Vulcan-Ave-Encinitas-CA-92024/2078343148_zpid/
Multi-family home for sale,"$1,675,000","2051 Elise Way, Santa Barbara, CA 93109",2051 Elise Way,Santa Barbara,CA,93109,34.40064,-119.725723,"2,306",null,null,Multiple Occupancy,1972,No Data,null,$726,"$1,684,504","$3,695/mo",https://www.zillow.com/homedetails/2051-Elise-Way-Santa-Barbara-CA-93109/83153230_zpid/
