Listing_type,Price,Full_address,Street,City,State,Zip_code,Latitude,Longitude,Square_Feet,Lot,Lot_conversion_to_sqft,House_type,Year_build,Parking,Hoa,Zillow_price_per_sqft,Zestimate,Rent_zestimate,House_website
Townhouse for sale,"$808,900","2110 Vanderbilt Ln Unit C, Redondo Beach, CA 90278",2110 Vanderbilt Ln UNIT C,Redondo Beach,CA,90278,33.871545,-118.373822,"1,471",1.03 Acres,44866.8,Townhouse,1984,2 spaces,null,$550,"$828,836","$3,600/mo",https://www.zillow.com/homedetails/2110-Vanderbilt-Ln-UNIT-C-Redondo-Beach-CA-90278/20406329_zpid/
Townhouse for sale,"$639,000","12788 Zurich Pl #4, Truckee, CA 96161",12788 Zurich Pl #4,Truckee,CA,96161,39.342477,-120.217767,"2,082",0.30 Acres,13068.0,Townhouse,2003,1 space,null,$307,"$663,078","$4,000/mo",https://www.zillow.com/homedetails/12788-Zurich-Pl-4-Truckee-CA-96161/82886843_zpid/
Townhouse for sale,"$829,000","70 Corte Oriental Way, Greenbrae, CA 94904",70 Corte Oriental Way,Greenbrae,CA,94904,37.946428,-122.534886,"1,400","1,015 sqft",1015.0,Townhouse,1978,1 space,null,$592,"$840,731","$4,500/mo",https://www.zillow.com/homedetails/70-Corte-Oriental-Way-Greenbrae-CA-94904/19251669_zpid/
Townhouse for sale,"$549,900","2026 Mountain Vista Way, Oceanside, CA 92054",2026 Mountain Vista Way,Oceanside,CA,92054,33.191707,-117.333143,"1,435",3.45 Acres,150282.0,Townhouse,1989,4 spaces,null,$383,"$550,698","$2,500/mo",https://www.zillow.com/homedetails/2026-Mountain-Vista-Way-Oceanside-CA-92054/16614754_zpid/
Townhouse for sale,"$699,000","392 S Marengo Ave Unit 103, Pasadena, CA 91101",392 S Marengo Ave UNIT 103,Pasadena,CA,91101,34.139052,-118.145342,"1,554",0.91 Acres,39639.6,Townhouse,1993,2 spaces,null,$450,"$699,933","$3,495/mo",https://www.zillow.com/homedetails/392-S-Marengo-Ave-UNIT-103-Pasadena-CA-91101/20862325_zpid/
Townhouse for sale,"$799,000","810 Amapola Ave, Torrance, CA 90501",810 Amapola Ave,Torrance,CA,90501,33.839078,-118.323439,"1,711","5,601 sqft",5601.0,Townhouse,2002,3 spaces,null,$467,"$799,006","$3,550/mo",https://www.zillow.com/homedetails/810-Amapola-Ave-Torrance-CA-90501/63093369_zpid/
Townhouse for sale,"$384,900","5305 Columbus Pl, Oxnard, CA 93033",5305 Columbus Pl,Oxnard,CA,93033,34.151881,-119.176739,"1,152","1,097 sqft",1097.0,Townhouse,1992,2 spaces,null,$334,"$384,902","$2,275/mo",https://www.zillow.com/homedetails/5305-Columbus-Pl-Oxnard-CA-93033/16408410_zpid/
Townhouse for sale,"$668,302","692 Gale Dr, Campbell, CA 95008",692 Gale Dr,Campbell,CA,95008,37.292216,-121.961156,"2,120","2,178 sqft",2178.0,Townhouse,2012,2 spaces,null,$315,"$676,369","$4,250/mo",https://www.zillow.com/homedetails/692-Gale-Dr-Campbell-CA-95008/121043366_zpid/
Townhouse for sale,"$529,777","1407 Calabria St, Santee, CA 92071",1407 Calabria St,Santee,CA,92071,32.837182,-116.958814,"1,741",0.49 Acres,21344.4,Townhouse,2010,3 spaces,null,$304,"$504,306","$2,800/mo",https://www.zillow.com/homedetails/1407-Calabria-St-Santee-CA-92071/95063746_zpid/
Townhouse for sale,"$359,900","30156 Yellow Feather Dr, Canyon Lake, CA 92587",30156 Yellow Feather Dr,Canyon Lake,CA,92587,33.683034,-117.250747,"1,600","1,742 sqft",1742.0,Townhouse,1983,3 spaces,null,$225,"$324,131","$2,000/mo",https://www.zillow.com/homedetails/30156-Yellow-Feather-Dr-Canyon-Lake-CA-92587/17931269_zpid/
Townhouse for sale,"$685,000","16626 Skislope Way #c, Truckee, CA 96161",16626 Skislope Way #C,Truckee,CA,96161,39.357884,-120.258983,"1,613","8,712 sqft",8712.0,Townhouse,2009,4 spaces,null,$425,"$654,682","$3,000/mo",https://www.zillow.com/homedetails/16626-Skislope-Way-C-Truckee-CA-96161/94640981_zpid/
Townhouse for sale,"$518,000","1901 S Victoria Ave Unit 218, Oxnard, CA 93035",1901 S Victoria Ave UNIT 218,Oxnard,CA,93035,34.182236,-119.22153,"1,969","1,306 sqft",1306.0,Townhouse,2008,2 spaces,null,$263,"$469,347","$2,700/mo",https://www.zillow.com/homedetails/1901-S-Victoria-Ave-UNIT-218-Oxnard-CA-93035/89133372_zpid/
Townhouse for sale,"$574,500","27931 Sirani Ct, Valencia, CA 91355",27931 Sirani Ct,Valencia,CA,91355,34.442946,-118.569266,"1,936",3.98 Acres,173368.8,Townhouse,2004,2 spaces,null,$297,"$579,690","$3,000/mo",https://www.zillow.com/homedetails/27931-Sirani-Ct-Valencia-CA-91355/63788334_zpid/
Townhouse for sale,"$450,000","642 Hatfield Dr, San Marcos, CA 92078",642 Hatfield Dr,San Marcos,CA,92078,33.120981,-117.164629,"1,209",1.32 Acres,57499.2,Townhouse,2005,2 spaces,null,$372,"$450,002","$2,300/mo",https://www.zillow.com/homedetails/642-Hatfield-Dr-San-Marcos-CA-92078/69021562_zpid/
Townhouse for sale,"$569,000","12826 Zurich Pl #4, Truckee, CA 96161",12826 Zurich Pl #4,Truckee,CA,96161,39.341771,-120.218527,"1,340","1,306 sqft",1306.0,Townhouse,2001,1 space,null,$425,"$496,033","$2,800/mo",https://www.zillow.com/homedetails/12826-Zurich-Pl-4-Truckee-CA-96161/82884419_zpid/
Townhouse for sale,"$529,900","10450 Zelzah Ave Unit A, Los Angeles, CA 91326",10450 Zelzah Ave UNIT A,Los Angeles,CA,91326,34.260203,-118.523174,"1,551",1.97 Acres,85813.2,Townhouse,1979,2 spaces,null,$342,"$535,561","$2,900/mo",https://www.zillow.com/homedetails/10450-Zelzah-Ave-UNIT-A-Los-Angeles-CA-91326/20168516_zpid/
Townhouse for sale,"$517,500","19929 Vermont Ln, Huntington Beach, CA 92646",19929 Vermont Ln,Huntington Beach,CA,92646,33.673039,-117.958746,"1,122",858 sqft,858.0,Townhouse,1963,2 spaces,null,$461,"$518,558","$2,549/mo",https://www.zillow.com/homedetails/19929-Vermont-Ln-Huntington-Beach-CA-92646/25278609_zpid/
Townhouse for sale,"$499,999","24846 Lakefield St, Lake Forest, CA 92630",24846 Lakefield St,Lake Forest,CA,92630,33.643263,-117.697278,"1,392","1,372 sqft",1372.0,Townhouse,1972,2 spaces,null,$359,"$542,879","$2,795/mo",https://www.zillow.com/homedetails/24846-Lakefield-St-Lake-Forest-CA-92630/25530882_zpid/
Townhouse for sale,"$444,900","50 Maegan Pl Apt 14, Thousand Oaks, CA 91362",50 Maegan Pl APT 14,Thousand Oaks,CA,91362,34.179046,-118.852272,"1,200","1,197 sqft",1197.0,Townhouse,1985,2 spaces,null,$371,"$434,236","$2,500/mo",https://www.zillow.com/homedetails/50-Maegan-Pl-APT-14-Thousand-Oaks-CA-91362/16477097_zpid/
Townhouse for sale,"$599,000","456 Via Colinas, Westlake Village, CA 91362",456 Via Colinas,Westlake Village,CA,91362,34.162647,-118.806301,"1,435","1,433 sqft",1433.0,Townhouse,1986,2 spaces,null,$417,"$606,518","$3,200/mo",https://www.zillow.com/homedetails/456-Via-Colinas-Westlake-Village-CA-91362/16488184_zpid/
Townhouse for sale,"$465,000","1670 Aspen Village Way, West Covina, CA 91791",1670 Aspen Village Way,West Covina,CA,91791,34.059914,-117.911255,"1,415",1.23 Acres,53578.8,Townhouse,1977,2 spaces,null,$329,"$465,182","$2,425/mo",https://www.zillow.com/homedetails/1670-Aspen-Village-Way-West-Covina-CA-91791/21572155_zpid/
Townhouse for sale,"$559,000","40 Bayley St, Mission Viejo, CA 92694",40 Bayley St,Mission Viejo,CA,92694,33.552688,-117.644589,"1,560",No Data,null,Townhouse,2003,2 spaces,null,$358,"$559,001","$3,100/mo",https://www.zillow.com/homedetails/40-Bayley-St-Mission-Viejo-CA-92694/63117516_zpid/
Townhouse for sale,"$586,500","9610 Bloomfield Ave, Cypress, CA 90630",9610 Bloomfield Ave,Cypress,CA,90630,33.822589,-118.062365,"1,426","1,851 sqft",1851.0,Townhouse,1968,2 spaces,null,$411,"$581,972","$2,895/mo",https://www.zillow.com/homedetails/9610-Bloomfield-Ave-Cypress-CA-90630/25328543_zpid/
Townhouse for sale,"$559,999","4478 Larwin Ave, Cypress, CA 90630",4478 Larwin Ave,Cypress,CA,90630,33.815984,-118.055144,"1,426","1,803 sqft",1803.0,Townhouse,1967,2 spaces,null,$393,"$563,251","$2,900/mo",https://www.zillow.com/homedetails/4478-Larwin-Ave-Cypress-CA-90630/25325871_zpid/
Townhouse for sale,"$639,000","301 W G St Unit 116, San Diego, CA 92101",301 W G St UNIT 116,San Diego,CA,92101,32.712024,-117.166172,"1,225",1.36 Acres,59241.6,Townhouse,2004,1 space,null,$522,"$679,063","$2,950/mo",https://www.zillow.com/homedetails/301-W-G-St-UNIT-116-San-Diego-CA-92101/60552159_zpid/
Townhouse for sale,"$375,000","447 Bluffview Rd, Spring Valley, CA 91977",447 Bluffview Rd,Spring Valley,CA,91977,32.696644,-117.021255,975,0.93 Acres,40510.8,Townhouse,1974,2 spaces,null,$385,"$378,757","$2,250/mo",https://www.zillow.com/homedetails/447-Bluffview-Rd-Spring-Valley-CA-91977/17128040_zpid/
For sale by owner,"$720,000","12559 El Camino Real Unit D, San Diego, CA 92130",12559 El Camino Real UNIT D,San Diego,CA,92130,32.945802,-117.234631,"1,351",1 sqft,1.0,Townhouse,1998,2 spaces,null,$533,"$714,038","$2,850/mo",https://www.zillow.com/homedetails/12559-El-Camino-Real-UNIT-D-San-Diego-CA-92130/16778141_zpid/
Townhouse for sale,"$698,000","7694 Arbor Creek Cir, Dublin, CA 94568",7694 Arbor Creek Cir,Dublin,CA,94568,37.708637,-121.93914,"1,200","1,973 sqft",1973.0,Townhouse,1987,2 spaces,null,$582,"$711,981","$3,100/mo",https://www.zillow.com/homedetails/7694-Arbor-Creek-Cir-Dublin-CA-94568/25061900_zpid/
Townhouse for sale,"$549,900","5151 Walnut Ave Apt 23, Irvine, CA 92604",5151 Walnut Ave APT 23,Irvine,CA,92604,33.693656,-117.77176,"1,156",No Data,null,Townhouse,1982,2 spaces,null,$476,null,null,https://www.zillow.com/homedetails/5151-Walnut-Ave-APT-23-Irvine-CA-92604/2078422937_zpid/
Townhouse for sale,"$450,000","8628 1/2 Ramona St #5, Bellflower, CA 90706",8628 1/2 Ramona St #5,Bellflower,CA,90706,33.872428,-118.148128,"1,435",No Data,null,Townhouse,1989,No Data,null,$314,null,null,https://www.zillow.com/homedetails/8628-1-2-Ramona-St-5-Bellflower-CA-90706/2077648211_zpid/
Townhouse for sale,"$365,000","1070 Sierra View Cir Unit 3, Lincoln, CA 95648",1070 Sierra View Cir UNIT 3,Lincoln,CA,95648,38.874255,-121.304544,"1,746","1,067 sqft",1067.0,Townhouse,2006,2 spaces,null,$209,"$374,358","$2,295/mo",https://www.zillow.com/homedetails/1070-Sierra-View-Cir-UNIT-3-Lincoln-CA-95648/79549264_zpid/
Townhouse for sale,"$699,000","59 Shadow Mtn, Oakland, CA 94605",59 Shadow Mtn,Oakland,CA,94605,37.765155,-122.127879,"1,757","2,940 sqft",2940.0,Townhouse,1977,2 spaces,null,$398,"$790,017","$3,400/mo",https://www.zillow.com/homedetails/59-Shadow-Mtn-Oakland-CA-94605/24809582_zpid/
Townhouse for sale,"$875,000","2924 Cedarwood Loop, San Ramon, CA 94582",2924 Cedarwood Loop,San Ramon,CA,94582,37.771898,-121.920986,"1,433","3,349 sqft",3349.0,Townhouse,2005,2 spaces,null,$611,null,null,https://www.zillow.com/homedetails/2924-Cedarwood-Loop-San-Ramon-CA-94582/68042968_zpid/
Townhouse for sale,"$685,000","17150 Burbank Blvd Unit 29, Los Angeles, CA 91316",17150 Burbank Blvd UNIT 29,Los Angeles,CA,91316,34.171804,-118.506579,"1,870",3.32 Acres,144619.2,Townhouse,1979,2 spaces,null,$366,"$603,792","$3,195/mo",https://www.zillow.com/homedetails/17150-Burbank-Blvd-UNIT-29-Los-Angeles-CA-91316/19978343_zpid/
Townhouse for sale,"$545,000","227 Squaw Valley Rd #12, Olympic Valley, CA 96146",227 Squaw Valley Rd #12,Olympic Valley,CA,96146,39.205599,-120.203927,"1,171","1,150 sqft",1150.0,Townhouse,1982,No Data,null,$465,"$557,339","$1,995/mo",https://www.zillow.com/homedetails/227-Squaw-Valley-Rd-12-Olympic-Valley-CA-96146/17703803_zpid/
Townhouse for sale,"$625,000","6868 Pear Tree Dr, Carlsbad, CA 92011",6868 Pear Tree Dr,Carlsbad,CA,92011,33.108257,-117.303679,"1,292","1,742 sqft",1742.0,Townhouse,1987,2 spaces,null,$484,"$628,507","$2,750/mo",https://www.zillow.com/homedetails/6868-Pear-Tree-Dr-Carlsbad-CA-92011/16654081_zpid/
Townhouse for sale,"$365,000","11350 Foothill Blvd Unit 13, Los Angeles, CA 91342",11350 Foothill Blvd UNIT 13,Los Angeles,CA,91342,34.275808,-118.378258,"1,029",1.10 Acres,47916.0,Townhouse,1985,2 spaces,null,$355,"$367,389","$2,395/mo",https://www.zillow.com/homedetails/11350-Foothill-Blvd-UNIT-13-Los-Angeles-CA-91342/20083182_zpid/
Townhouse for sale,"$495,000","14621 Red Hill Ave, Tustin, CA 92780",14621 Red Hill Ave,Tustin,CA,92780,33.726466,-117.822739,"1,232","1,616 sqft",1616.0,Townhouse,1964,4 spaces,null,$402,"$497,174","$2,700/mo",https://www.zillow.com/homedetails/14621-Red-Hill-Ave-Tustin-CA-92780/25471913_zpid/
Townhouse for sale,"$560,000","1648 Sherwood Village Cir, Placentia, CA 92870",1648 Sherwood Village Cir,Placentia,CA,92870,33.891983,-117.845512,"1,352","1,672 sqft",1672.0,Townhouse,1974,2 spaces,null,$414,"$542,083","$2,550/mo",https://www.zillow.com/homedetails/1648-Sherwood-Village-Cir-Placentia-CA-92870/25377790_zpid/
Townhouse for sale,"$405,000","1568 Schenone Ct Apt C, Concord, CA 94521",1568 Schenone Ct APT C,Concord,CA,94521,37.955209,-121.959947,"1,250",958 sqft,958.0,Townhouse,1972,2 spaces,null,$324,null,null,https://www.zillow.com/homedetails/1568-Schenone-Ct-APT-C-Concord-CA-94521/2077632025_zpid/
Townhouse for sale,"$485,000","8841 Lampson Ave Unit C, Garden Grove, CA 92841",8841 Lampson Ave UNIT C,Garden Grove,CA,92841,33.781617,-117.977354,"1,390","9,997 sqft",9997.0,Townhouse,1992,2 spaces,null,$349,"$495,229","$2,600/mo",https://www.zillow.com/homedetails/8841-Lampson-Ave-UNIT-C-Garden-Grove-CA-92841/25696302_zpid/
Townhouse for sale,"$400,000","5185 Aspen Dr, Montclair, CA 91763",5185 Aspen Dr,Montclair,CA,91763,34.07636,-117.691853,"1,368","5,000 sqft",5000.0,Townhouse,1981,2 spaces,null,$292,"$421,140","$2,200/mo",https://www.zillow.com/homedetails/5185-Aspen-Dr-Montclair-CA-91763/17525002_zpid/
Townhouse for sale,"$379,999","13701 Hubbard St Unit 21, Los Angeles, CA 91342",13701 Hubbard St UNIT 21,Los Angeles,CA,91342,34.306529,-118.431542,"1,005",3.50 Acres,152460.0,Townhouse,1980,2 spaces,null,$378,"$388,497","$2,193/mo",https://www.zillow.com/homedetails/13701-Hubbard-St-UNIT-21-Los-Angeles-CA-91342/20073154_zpid/
Townhouse for sale,"$859,900","1157 Pacific Beach Dr, San Diego, CA 92109",1157 Pacific Beach Dr,San Diego,CA,92109,32.792085,-117.246867,"1,514",0.29 Acres,12632.4,Townhouse,1982,2 spaces,null,$568,"$897,441","$3,900/mo",https://www.zillow.com/homedetails/1157-Pacific-Beach-Dr-San-Diego-CA-92109/16921158_zpid/
Townhouse for sale,"$920,000","73 Chantilly, Irvine, CA 92620",73 Chantilly,Irvine,CA,92620,33.703259,-117.750344,"2,143","3,497 sqft",3497.0,Townhouse,2004,2 spaces,null,$429,"$310,836","$3,600/mo",https://www.zillow.com/homedetails/73-Chantilly-Irvine-CA-92620/69258187_zpid/
Townhouse for sale,"$509,000","8629 Circle R Valley Ln #8629, Escondido, CA 92026",8629 Circle R Valley Ln #8629,Escondido,CA,92026,33.254674,-117.149427,"1,534","4,316 sqft",4316.0,Townhouse,1983,2 spaces,null,$332,null,null,https://www.zillow.com/homedetails/8629-Circle-R-Valley-Ln-8629-Escondido-CA-92026/2077627189_zpid/
Townhouse for sale,"$335,000","3101 Lake Forest Rd #21, Tahoe City, CA 96145",3101 Lake Forest Rd #21,Tahoe City,CA,96145,39.18546,-120.114443,990,483 sqft,483.0,Townhouse,1972,No Data,null,$338,"$334,890","$1,814/mo",https://www.zillow.com/homedetails/3101-Lake-Forest-Rd-21-Tahoe-City-CA-96145/17700790_zpid/
Townhouse for sale,"$825,000","5420 Port Sailwood Dr, Newark, CA 94560",5420 Port Sailwood Dr,Newark,CA,94560,37.544435,-122.028021,"1,498",2.71 Acres,118047.6,Townhouse,1983,2 spaces,null,$551,"$771,771","$3,100/mo",https://www.zillow.com/homedetails/5420-Port-Sailwood-Dr-Newark-CA-94560/24927779_zpid/
Townhouse for sale,"$607,500","686 Woodlawn Dr, Thousand Oaks, CA 91360",686 Woodlawn Dr,Thousand Oaks,CA,91360,34.187864,-118.89095,"1,950","2,657 sqft",2657.0,Townhouse,1977,2 spaces,null,$312,"$624,229","$3,000/mo",https://www.zillow.com/homedetails/686-Woodlawn-Dr-Thousand-Oaks-CA-91360/16427232_zpid/
Townhouse for sale,"$434,995","3190 Castelar Ct Unit 103, Corona, CA 92882",3190 Castelar Ct UNIT 103,Corona,CA,92882,33.874896,-117.627652,"1,621","1,742 sqft",1742.0,Townhouse,1990,3 spaces,null,$268,"$436,979","$2,300/mo",https://www.zillow.com/homedetails/3190-Castelar-Ct-UNIT-103-Corona-CA-92882/17761718_zpid/
Townhouse for sale,"$405,000","9047 Willis Ave Unit 2, Los Angeles, CA 91402",9047 Willis Ave UNIT 2,Los Angeles,CA,91402,34.234408,-118.455779,"1,221",0.41 Acres,17859.6,Townhouse,1978,2 spaces,null,$332,"$389,429","$2,500/mo",https://www.zillow.com/homedetails/9047-Willis-Ave-UNIT-2-Los-Angeles-CA-91402/20134061_zpid/
Townhouse for sale,"$519,000","1094 S Positano Ave, Anaheim, CA 92808",1094 S Positano Ave,Anaheim,CA,92808,33.85181,-117.74043,"1,205","1,001 sqft",1001.0,Townhouse,1995,2 spaces,null,$431,"$518,397","$2,500/mo",https://www.zillow.com/homedetails/1094-S-Positano-Ave-Anaheim-CA-92808/25661393_zpid/
Townhouse for sale,"$414,900","18560 Vanowen St Unit 17, Los Angeles, CA 91335",18560 Vanowen St UNIT 17,Los Angeles,CA,91335,34.193465,-118.537685,"1,154",1.64 Acres,71438.4,Townhouse,1979,2 spaces,null,$360,"$414,314","$2,550/mo",https://www.zillow.com/homedetails/18560-Vanowen-St-UNIT-17-Los-Angeles-CA-91335/19920224_zpid/
Townhouse for sale,"$385,000","410 Squaw Peak Rd #2, Alpine Meadows, CA 96146",410 Squaw Peak Rd #2,Alpine Meadows,CA,96146,39.198323,-120.240106,621,618 sqft,618.0,Townhouse,1970,No Data,null,$620,"$385,346","$1,695/mo",https://www.zillow.com/homedetails/410-Squaw-Peak-Rd-2-Alpine-Meadows-CA-96146/17703681_zpid/
Townhouse for sale,"$1,380,000","536 S 2nd Ave #4, Arcadia, CA 91006",536 S 2nd Ave #4,Arcadia,CA,91006,34.133896,-118.024648,"2,470",1.30 Acres,56628.0,Townhouse,2015,2 spaces,null,$559,"$1,251,984","$4,707/mo",https://www.zillow.com/homedetails/536-S-2nd-Ave-4-Arcadia-CA-91006/145645607_zpid/
Townhouse for sale,"$634,900","178 Paseo Vis, San Clemente, CA 92673",178 Paseo Vis,San Clemente,CA,92673,33.45941,-117.595969,"1,748",871 sqft,871.0,Townhouse,2003,4 spaces,null,$363,"$634,900","$3,400/mo",https://www.zillow.com/homedetails/178-Paseo-Vis-San-Clemente-CA-92673/63117334_zpid/
Townhouse for sale,"$888,500","1938 Caminito De La Valle, Glendale, CA 91208",1938 Caminito De La Valle,Glendale,CA,91208,34.167264,-118.214406,"1,776","1,868 sqft",1868.0,Townhouse,1990,2 spaces,null,$500,"$856,587","$3,200/mo",https://www.zillow.com/homedetails/1938-Caminito-De-La-Valle-Glendale-CA-91208/20843791_zpid/
Townhouse for sale,"$481,800","2370 Sentinel Ln, San Marcos, CA 92078",2370 Sentinel Ln,San Marcos,CA,92078,33.10779,-117.22419,"1,649",0.39 Acres,16988.4,Townhouse,2014,2 spaces,null,$292,"$481,802","$2,700/mo",https://www.zillow.com/homedetails/2370-Sentinel-Ln-San-Marcos-CA-92078/123847861_zpid/
Townhouse for sale,"$839,000","3438 Voyager Cir, San Diego, CA 92130",3438 Voyager Cir,San Diego,CA,92130,32.952005,-117.241719,"1,240",12.20 Acres,531432.0,Townhouse,1985,4 spaces,null,$677,"$839,006","$2,900/mo",https://www.zillow.com/homedetails/3438-Voyager-Cir-San-Diego-CA-92130/16768890_zpid/
Townhouse for sale,"$648,000","1200 W 220th St Unit 16, Torrance, CA 90502",1200 W 220th St UNIT 16,Torrance,CA,90502,33.827811,-118.297223,"1,626",0.79 Acres,34412.4,Townhouse,1996,2 spaces,null,$399,"$595,494","$3,000/mo",https://www.zillow.com/homedetails/1200-W-220th-St-UNIT-16-Torrance-CA-90502/21263804_zpid/
Townhouse for sale,"$675,000","1201 Pine St Unit 330, Oakland, CA 94607",1201 Pine St UNIT 330,Oakland,CA,94607,37.812715,-122.300282,"1,143",2.73 Acres,118918.8,Townhouse,2009,2 spaces,null,$591,"$652,373","$2,900/mo",https://www.zillow.com/homedetails/1201-Pine-St-UNIT-330-Oakland-CA-94607/89035211_zpid/
Townhouse for sale,"$519,950","19221 Index St Unit 5, Los Angeles, CA 91326",19221 Index St UNIT 5,Los Angeles,CA,91326,34.273672,-118.553386,"1,282",5.13 Acres,223462.8,Townhouse,1980,2 spaces,null,$406,"$475,090","$2,500/mo",https://www.zillow.com/homedetails/19221-Index-St-UNIT-5-Los-Angeles-CA-91326/20200716_zpid/
Townhouse for sale,"$699,000","904 Jetty Dr, Richmond, CA 94804",904 Jetty Dr,Richmond,CA,94804,37.917598,-122.348206,"1,556","2,151 sqft",2151.0,Townhouse,2017,2 spaces,null,$449,"$729,826","$3,465/mo",https://www.zillow.com/homedetails/904-Jetty-Dr-Richmond-CA-94804/95383141_zpid/
Townhouse for sale,"$259,900","3452 Treleaven Ct, Antelope, CA 95843",3452 Treleaven Ct,Antelope,CA,95843,38.706439,-121.381958,940,No Data,null,Townhouse,1981,2 spaces,null,$276,null,null,https://www.zillow.com/homedetails/3452-Treleaven-Ct-Antelope-CA-95843/2077815922_zpid/
Townhouse for sale,"$650,000","11738 Moorpark St Apt D, Los Angeles, CA 91604",11738 Moorpark St APT D,Los Angeles,CA,91604,34.150218,-118.389092,"1,278",12.47 Acres,543193.2,Townhouse,1974,2 spaces,null,$509,"$618,900","$2,990/mo",https://www.zillow.com/homedetails/11738-Moorpark-St-APT-D-Los-Angeles-CA-91604/20026688_zpid/
Townhouse for sale,"$975,000","823 Woodhams Oaks Pl, Santa Clara, CA 95051",823 Woodhams Oaks Pl,Santa Clara,CA,95051,37.338673,-121.979376,"1,187","1,750 sqft",1750.0,Townhouse,1996,1 space,null,$821,"$1,012,213","$3,150/mo",https://www.zillow.com/homedetails/823-Woodhams-Oaks-Pl-Santa-Clara-CA-95051/19596828_zpid/
Townhouse for sale,"$279,000","26025 Iris Ave Unit E, Moreno Valley, CA 92555",26025 Iris Ave UNIT E,Moreno Valley,CA,92555,33.890938,-117.206181,"1,544","1,306 sqft",1306.0,Townhouse,2006,2 spaces,null,$181,"$291,059","$1,950/mo",https://www.zillow.com/homedetails/26025-Iris-Ave-UNIT-E-Moreno-Valley-CA-92555/79828972_zpid/
Townhouse for sale,"$443,000","10234 Variel Ave Unit 8, Los Angeles, CA 91311",10234 Variel Ave UNIT 8,Los Angeles,CA,91311,34.256435,-118.592237,"1,424",0.62 Acres,27007.2,Townhouse,1981,2 spaces,null,$311,"$408,515","$2,595/mo",https://www.zillow.com/homedetails/10234-Variel-Ave-UNIT-8-Los-Angeles-CA-91311/20171504_zpid/
Townhouse for sale,"$575,000","10215 Larwin Ave Unit 3, Los Angeles, CA 91311",10215 Larwin Ave UNIT 3,Los Angeles,CA,91311,34.256497,-118.615044,"2,008",1.45 Acres,63162.0,Townhouse,1979,2 spaces,null,$286,"$532,753","$3,000/mo",https://www.zillow.com/homedetails/10215-Larwin-Ave-UNIT-3-Los-Angeles-CA-91311/20163958_zpid/
Townhouse for sale,"$589,909","3703 Jetty Point, Carlsbad, CA 92010",3703 Jetty Point,Carlsbad,CA,92010,33.167755,-117.296319,"1,341",1.84 Acres,80150.4,Townhouse,2005,2 spaces,null,$440,"$590,003","$2,600/mo",https://www.zillow.com/homedetails/3703-Jetty-Point-Carlsbad-CA-92010/63140864_zpid/
Townhouse for sale,"$455,000","5455 Baltimore Dr Unit 6, La Mesa, CA 91942",5455 Baltimore Dr UNIT 6,La Mesa,CA,91942,32.779455,-117.030811,"1,224",1.24 Acres,54014.4,Townhouse,1978,2 spaces,null,$372,"$448,258","$2,300/mo",https://www.zillow.com/homedetails/5455-Baltimore-Dr-UNIT-6-La-Mesa-CA-91942/16991133_zpid/
Townhouse for sale,"$775,000","13308 Kibbings Rd, San Diego, CA 92130",13308 Kibbings Rd,San Diego,CA,92130,32.9611,-117.23309,"1,405",4.35 Acres,189486.0,Townhouse,1990,2 spaces,null,$552,"$751,285","$3,000/mo",https://www.zillow.com/homedetails/13308-Kibbings-Rd-San-Diego-CA-92130/52511404_zpid/
Townhouse for sale,"$498,000","14427 Chadron Ave Apt 9, Hawthorne, CA 90250",14427 Chadron Ave APT 9,Hawthorne,CA,90250,33.899863,-118.329299,"1,221",2.36 Acres,102801.6,Townhouse,1985,No Data,null,$408,"$502,568","$2,595/mo",https://www.zillow.com/homedetails/14427-Chadron-Ave-APT-9-Hawthorne-CA-90250/20361972_zpid/
Townhouse for sale,"$642,888","761 Bonita Pl, San Jose, CA 95116",761 Bonita Pl,San Jose,CA,95116,37.341026,-121.854621,"1,231",701 sqft,701.0,Townhouse,2005,2 spaces,null,$522,"$671,716","$3,000/mo",https://www.zillow.com/homedetails/761-Bonita-Pl-San-Jose-CA-95116/64756811_zpid/
Townhouse for sale,"$1,050,000","4 Windward Hl, Oakland, CA 94618",4 Windward Hl,Oakland,CA,94618,37.854032,-122.226708,"2,132","2,016 sqft",2016.0,Townhouse,1996,2 spaces,null,$492,"$1,211,885","$4,300/mo",https://www.zillow.com/homedetails/4-Windward-Hl-Oakland-CA-94618/24820205_zpid/
Townhouse for sale,"$1,050,000","1183 Covington Ct, Walnut Creek, CA 94596",1183 Covington Ct,Walnut Creek,CA,94596,37.877053,-122.02364,"2,304","3,676 sqft",3676.0,Townhouse,1979,2 spaces,null,$456,null,null,https://www.zillow.com/homedetails/1183-Covington-Ct-Walnut-Creek-CA-94596/18416848_zpid/
Townhouse for sale,"$499,900","8216 Erskine Grn, Buena Park, CA 90621",8216 Erskine Grn,Buena Park,CA,90621,33.891124,-117.990217,"1,232","1,210 sqft",1210.0,Townhouse,1964,2 spaces,null,$406,"$500,178","$2,500/mo",https://www.zillow.com/homedetails/8216-Erskine-Grn-Buena-Park-CA-90621/25146388_zpid/
Townhouse for sale,"$265,000","6657 Greenback Ln, Citrus Heights, CA 95621",6657 Greenback Ln,Citrus Heights,CA,95621,38.678458,-121.309483,"1,344","1,398 sqft",1398.0,Townhouse,1973,2 spaces,null,$197,"$261,983","$1,750/mo",https://www.zillow.com/homedetails/6657-Greenback-Ln-Citrus-Heights-CA-95621/26024428_zpid/
For sale by owner,"$485,000","1787 Old Mammoth Rd #4, Mammoth Lakes, CA 93546",1787 Old Mammoth Rd #4,Mammoth Lakes,CA,93546,37.628696,-118.981111,"1,100",505 sqft,505.0,Townhouse,2005,2 spaces,null,$441,"$287,970","$2,495/mo",https://www.zillow.com/homedetails/1787-Old-Mammoth-Rd-4-Mammoth-Lakes-CA-93546/68996325_zpid/
Townhouse for sale,"$295,000","30462 Pelican Bay Unit C, Murrieta, CA 92563",30462 Pelican Bay UNIT C,Murrieta,CA,92563,33.55062,-117.129707,"1,016",No Data,null,Townhouse,2002,2 spaces,null,$290,"$292,867","$1,750/mo",https://www.zillow.com/homedetails/30462-Pelican-Bay-UNIT-C-Murrieta-CA-92563/61286466_zpid/
Townhouse for sale,"$475,000","10260 Caminito Rio Branco, San Diego, CA 92131",10260 Caminito Rio Branco,San Diego,CA,92131,32.904657,-117.107034,"1,104",4.37 Acres,190357.2,Townhouse,1978,2 spaces,null,$430,"$478,754","$2,350/mo",https://www.zillow.com/homedetails/10260-Caminito-Rio-Branco-San-Diego-CA-92131/16866677_zpid/
Townhouse for sale,"$599,000","14 Sunfish St #52, Irvine, CA 92604",14 Sunfish St #52,Irvine,CA,92604,33.684383,-117.788808,907,No Data,null,Townhouse,1978,2 spaces,null,$660,"$591,200","$2,150/mo",https://www.zillow.com/homedetails/14-Sunfish-St-52-Irvine-CA-92604/25720663_zpid/
Townhouse for sale,"$690,000","14420 Papaya Ln #4, Gardena, CA 90247",14420 Papaya Ln #4,Gardena,CA,90247,33.900277,-118.298768,"1,830",0.42 Acres,18295.2,Townhouse,2017,2 spaces,null,$377,"$690,006","$3,400/mo",https://www.zillow.com/homedetails/14420-Papaya-Ln-4-Gardena-CA-90247/302796856_zpid/
Townhouse for sale,"$668,888","5347 San Simeon Pl, Castro Valley, CA 94552",5347 San Simeon Pl,Castro Valley,CA,94552,37.70049,-122.046245,"1,334","1,620 sqft",1620.0,Townhouse,1981,2 spaces,null,$501,"$652,373","$3,000/mo",https://www.zillow.com/homedetails/5347-San-Simeon-Pl-Castro-Valley-CA-94552/24915201_zpid/
Townhouse for sale,"$400,000","6258 Lonetree Blvd, Rocklin, CA 95765",6258 Lonetree Blvd,Rocklin,CA,95765,38.807029,-121.295439,"1,771","1,197 sqft",1197.0,Townhouse,2008,2 spaces,null,$226,"$409,090","$2,195/mo",https://www.zillow.com/homedetails/6258-Lonetree-Blvd-Rocklin-CA-95765/79549654_zpid/
Townhouse for sale,"$593,000","1150 W Capitol Dr Unit 27, Los Angeles, CA 90732",1150 W Capitol Dr UNIT 27,Los Angeles,CA,90732,33.757562,-118.303353,"1,902",2.25 Acres,98010.0,Townhouse,1983,2 spaces,null,$312,"$593,005","$3,000/mo",https://www.zillow.com/homedetails/1150-W-Capitol-Dr-UNIT-27-Los-Angeles-CA-90732/21303407_zpid/
Townhouse for sale,"$868,000","116 Waterleaf, Irvine, CA 92620",116 Waterleaf,Irvine,CA,92620,33.683366,-117.753518,"1,888",No Data,null,Townhouse,2016,2 spaces,null,$460,null,null,https://www.zillow.com/homedetails/116-Waterleaf-Irvine-CA-92620/249136027_zpid/
Townhouse for sale,"$699,000","1071 Ribisi Cir, San Jose, CA 95131",1071 Ribisi Cir,San Jose,CA,95131,37.378606,-121.86929,"1,102","1,559 sqft",1559.0,Townhouse,1971,2 spaces,null,$634,"$727,030","$2,850/mo",https://www.zillow.com/homedetails/1071-Ribisi-Cir-San-Jose-CA-95131/19566253_zpid/
Townhouse for sale,"$519,000","7401 Western Bay Dr, Buena Park, CA 90621",7401 Western Bay Dr,Buena Park,CA,90621,33.866551,-118.003412,"1,372","1,372 sqft",1372.0,Townhouse,1998,2 spaces,null,$378,"$525,625","$2,600/mo",https://www.zillow.com/homedetails/7401-Western-Bay-Dr-Buena-Park-CA-90621/25662979_zpid/
Townhouse for sale,"$725,000","13925 Riverside Dr, Sherman Oaks, CA 91423",13925 Riverside Dr,Sherman Oaks,CA,91423,34.157772,-118.436019,"1,789",1.73 Acres,75358.8,Townhouse,1975,2 spaces,null,$405,"$725,194","$3,150/mo",https://www.zillow.com/homedetails/13925-Riverside-Dr-Sherman-Oaks-CA-91423/19986042_zpid/
Townhouse for sale,"$598,000","3715 Bennington Ct, Carlsbad, CA 92010",3715 Bennington Ct,Carlsbad,CA,92010,33.166006,-117.30425,"1,693","1,502 sqft",1502.0,Townhouse,1984,2 spaces,null,$353,"$598,004","$2,700/mo",https://www.zillow.com/homedetails/3715-Bennington-Ct-Carlsbad-CA-92010/16620197_zpid/
New construction,"$499,900","11753 Hadley St, Whittier, CA 90601",11753 Hadley St,Whittier,CA,90601,33.982741,-118.051129,"1,319","1,001 sqft",1001.0,Townhouse,2020,2 spaces,null,$379,null,null,https://www.zillow.com/homedetails/11753-Hadley-St-Whittier-CA-90601/2077627508_zpid/
Townhouse for sale,"$424,500","2904 Cogswell Rd Apt 9, El Monte, CA 91732",2904 Cogswell Rd APT 9,El Monte,CA,91732,34.060338,-118.02047,"1,304",0.52 Acres,22651.2,Townhouse,1981,2 spaces,null,$326,"$450,788","$2,400/mo",https://www.zillow.com/homedetails/2904-Cogswell-Rd-APT-9-El-Monte-CA-91732/21411724_zpid/
Townhouse for sale,"$749,000","7861 Inception Way, San Diego, CA 92108",7861 Inception Way,San Diego,CA,92108,32.777949,-117.151025,"1,555",0.74 Acres,32234.4,Townhouse,2012,2 spaces,null,$482,"$750,846","$3,300/mo",https://www.zillow.com/homedetails/7861-Inception-Way-San-Diego-CA-92108/120796326_zpid/
Townhouse for sale,"$465,000","8901 Serapis Ave Apt 18, Downey, CA 90240",8901 Serapis Ave APT 18,Downey,CA,90240,33.957732,-118.10764,"1,505","1,441 sqft",1441.0,Townhouse,1987,2 spaces,null,$309,"$468,959","$2,500/mo",https://www.zillow.com/homedetails/8901-Serapis-Ave-APT-18-Downey-CA-90240/21104060_zpid/
Townhouse for sale,"$749,000","3107 Corte Cabrillo, Aptos, CA 95003",3107 Corte Cabrillo,Aptos,CA,95003,36.991408,-121.932012,"2,004","2,003 sqft",2003.0,Townhouse,1984,No Data,null,$374,"$747,146","$3,300/mo",https://www.zillow.com/homedetails/3107-Corte-Cabrillo-Aptos-CA-95003/16134590_zpid/
Townhouse for sale,"$219,000","3639 Gold Creek Ln, Sacramento, CA 95827",3639 Gold Creek Ln,Sacramento,CA,95827,38.552224,-121.34416,812,"1,916 sqft",1916.0,Townhouse,1984,2 spaces,null,$270,"$196,631","$1,395/mo",https://www.zillow.com/homedetails/3639-Gold-Creek-Ln-Sacramento-CA-95827/25864750_zpid/
Townhouse for sale,"$428,000","1031 Mariposa St #2, Glendale, CA 91205",1031 Mariposa St #2,Glendale,CA,91205,34.133698,-118.250764,878,439 sqft,439.0,Townhouse,1988,2 spaces,null,$487,"$486,754","$2,300/mo",https://www.zillow.com/homedetails/1031-Mariposa-St-2-Glendale-CA-91205/20847113_zpid/
Townhouse for sale,"$384,900","2101 S Pacific Ave Unit 1, Santa Ana, CA 92704",2101 S Pacific Ave UNIT 1,Santa Ana,CA,92704,33.718974,-117.887682,"1,218","1,459 sqft",1459.0,Townhouse,1964,1 space,null,$316,"$384,903","$2,600/mo",https://www.zillow.com/homedetails/2101-S-Pacific-Ave-UNIT-1-Santa-Ana-CA-92704/25690966_zpid/
Townhouse for sale,"$539,000","9335 Alondra Blvd Apt 7, Bellflower, CA 90706",9335 Alondra Blvd APT 7,Bellflower,CA,90706,33.890052,-118.134514,"1,440",0.77 Acres,33541.2,Townhouse,2015,2 spaces,null,$374,"$545,899","$2,800/mo",https://www.zillow.com/homedetails/9335-Alondra-Blvd-APT-7-Bellflower-CA-90706/244501665_zpid/
Townhouse for sale,"$749,000","17419 Graciosa Rd, San Diego, CA 92128",17419 Graciosa Rd,San Diego,CA,92128,33.030607,-117.071736,"2,216",4.69 Acres,204296.4,Townhouse,1980,4 spaces,null,$338,"$749,006","$3,200/mo",https://www.zillow.com/homedetails/17419-Graciosa-Rd-San-Diego-CA-92128/16741977_zpid/
Townhouse for sale,"$349,000","5195 Walnut Ave Unit 11, Chino, CA 91710",5195 Walnut Ave UNIT 11,Chino,CA,91710,34.025416,-117.691656,"1,149","1,149 sqft",1149.0,Townhouse,1985,2 spaces,null,$304,"$349,002","$1,995/mo",https://www.zillow.com/homedetails/5195-Walnut-Ave-UNIT-11-Chino-CA-91710/17536714_zpid/
Townhouse for sale,"$529,000","1141 E 1st St, Tustin, CA 92780",1141 E 1st St,Tustin,CA,92780,33.745028,-117.811967,"1,303",949 sqft,949.0,Townhouse,1963,No Data,null,$406,"$501,909","$2,550/mo",https://www.zillow.com/homedetails/1141-E-1st-St-Tustin-CA-92780/25505669_zpid/
Townhouse for sale,"$595,000","27101 Pine Valley Dr #50, Stevenson Ranch, CA 91381",27101 Pine Valley Dr #50,Stevenson Ranch,CA,91381,34.41202,-118.582642,"1,642",2.20 Acres,95832.0,Townhouse,2004,2 spaces,null,$362,null,null,https://www.zillow.com/homedetails/27101-Pine-Valley-Dr-50-Stevenson-Ranch-CA-91381/2077704522_zpid/
Townhouse for sale,"$649,000","5 Camino Celeste, San Clemente, CA 92673",5 Camino Celeste,San Clemente,CA,92673,33.456865,-117.578222,"1,625",No Data,null,Townhouse,2000,2 spaces,null,$399,"$648,598","$3,200/mo",https://www.zillow.com/homedetails/5-Camino-Celeste-San-Clemente-CA-92673/54978093_zpid/
Townhouse for sale,"$1,699,000","6468 Lunita Rd, Malibu, CA 90265",6468 Lunita Rd,Malibu,CA,90265,34.03603,-118.84965,"2,064",0.37 Acres,16117.2,Townhouse,2000,2 spaces,null,$823,"$1,699,014","$7,595/mo",https://www.zillow.com/homedetails/6468-Lunita-Rd-Malibu-CA-90265/51583094_zpid/
Townhouse for sale,"$448,000","1125 Golden Springs Dr Apt E, Diamond Bar, CA 91765",1125 Golden Springs Dr APT E,Diamond Bar,CA,91765,34.036899,-117.795957,"1,262",4.83 Acres,210394.8,Townhouse,1984,2 spaces,null,$355,"$451,845","$2,400/mo",https://www.zillow.com/homedetails/1125-Golden-Springs-Dr-APT-E-Diamond-Bar-CA-91765/21665707_zpid/
Townhouse for sale,"$399,000","14201 Foothill Blvd Unit 47, Los Angeles, CA 91342",14201 Foothill Blvd UNIT 47,Los Angeles,CA,91342,34.317859,-118.44296,"1,172",2.01 Acres,87555.6,Townhouse,1982,2 spaces,null,$340,"$407,730","$2,400/mo",https://www.zillow.com/homedetails/14201-Foothill-Blvd-UNIT-47-Los-Angeles-CA-91342/20069406_zpid/
Townhouse for sale,"$1,325,000","4665 Park Dr, Carlsbad, CA 92008",4665 Park Dr,Carlsbad,CA,92008,33.145097,-117.322656,"2,661","4,560 sqft",4560.0,Townhouse,1998,2 spaces,null,$498,"$1,325,009","$4,837/mo",https://www.zillow.com/homedetails/4665-Park-Dr-Carlsbad-CA-92008/51077085_zpid/
Townhouse for sale,"$639,000","117 Leafy Twig, Irvine, CA 92618",117 Leafy Twig,Irvine,CA,92618,33.684912,-117.712789,"1,231",No Data,null,Townhouse,2019,2 spaces,null,$519,null,null,https://www.zillow.com/homedetails/117-Leafy-Twig-Irvine-CA-92618/2077694614_zpid/
Townhouse for sale,"$450,000","3966 Cochran St Unit 75, Simi Valley, CA 93063",3966 Cochran St UNIT 75,Simi Valley,CA,93063,34.278622,-118.719032,"1,207",871 sqft,871.0,Townhouse,1987,2 spaces,null,$373,"$472,480","$2,700/mo",https://www.zillow.com/homedetails/3966-Cochran-St-UNIT-75-Simi-Valley-CA-93063/16444607_zpid/
Townhouse for sale,"$739,000","3522 Caminito Carmel Lndg, San Diego, CA 92130",3522 Caminito Carmel Lndg,San Diego,CA,92130,32.939884,-117.237235,"1,368",2.19 Acres,95396.4,Townhouse,1985,1 space,null,$540,"$729,001","$3,000/mo",https://www.zillow.com/homedetails/3522-Caminito-Carmel-Lndg-San-Diego-CA-92130/16775578_zpid/
Townhouse for sale,"$355,000","305 Canterbury Way, Oxnard, CA 93033",305 Canterbury Way,Oxnard,CA,93033,34.153827,-119.180053,"1,123",0.67 Acres,29185.2,Townhouse,1991,2 spaces,null,$316,"$347,889","$2,375/mo",https://www.zillow.com/homedetails/305-Canterbury-Way-Oxnard-CA-93033/16408448_zpid/
Townhouse for sale,"$1,249,000","1314 16th St Apt F, Santa Monica, CA 90404",1314 16th St APT F,Santa Monica,CA,90404,34.026409,-118.485258,"1,545","7,483 sqft",7483.0,Townhouse,1963,2 spaces,null,$808,"$1,255,244","$4,900/mo",https://www.zillow.com/homedetails/1314-16th-St-APT-F-Santa-Monica-CA-90404/20479708_zpid/
Townhouse for sale,"$635,000","99 Fountainhead Ct, Martinez, CA 94553",99 Fountainhead Ct,Martinez,CA,94553,37.988393,-122.083964,"1,740","1,907 sqft",1907.0,Townhouse,1976,2 spaces,null,$365,"$640,699","$3,200/mo",https://www.zillow.com/homedetails/99-Fountainhead-Ct-Martinez-CA-94553/18396642_zpid/
Townhouse for sale,"$359,900","2045 E Yale St, Ontario, CA 91764",2045 E Yale St,Ontario,CA,91764,34.080508,-117.607287,"1,281","1,398 sqft",1398.0,Townhouse,1982,2 spaces,null,$281,"$364,315","$2,000/mo",https://www.zillow.com/homedetails/2045-E-Yale-St-Ontario-CA-91764/17301629_zpid/
Townhouse for sale,"$550,000","1337 Spring Valley Cmn, Livermore, CA 94551",1337 Spring Valley Cmn,Livermore,CA,94551,37.707906,-121.745423,"1,274","1,141 sqft",1141.0,Townhouse,1985,No Data,null,$432,"$591,557","$2,700/mo",https://www.zillow.com/homedetails/1337-Spring-Valley-Cmn-Livermore-CA-94551/24948152_zpid/
Townhouse for sale,"$475,000","3434 Timber Lake, Costa Mesa, CA 92626",3434 Timber Lake,Costa Mesa,CA,92626,33.695592,-117.893307,"1,324",100 sqft,100.0,Townhouse,1976,2 spaces,null,$359,null,null,https://www.zillow.com/homedetails/3434-Timber-Lake-Costa-Mesa-CA-92626/2078503093_zpid/
Townhouse for sale,"$449,000","4484 Lubbock Dr Apt A, Simi Valley, CA 93063",4484 Lubbock Dr APT A,Simi Valley,CA,93063,34.287781,-118.708097,"1,397","3,484 sqft",3484.0,Townhouse,1980,4 spaces,null,$321,"$455,251","$2,650/mo",https://www.zillow.com/homedetails/4484-Lubbock-Dr-APT-A-Simi-Valley-CA-93063/16447863_zpid/
Townhouse for sale,"$429,999","19433 Opal Ln #285, Santa Clarita, CA 91350",19433 Opal Ln #285,Santa Clarita,CA,91350,34.446266,-118.476351,"1,440",2.88 Acres,125452.8,Townhouse,2005,2 spaces,null,$299,null,null,https://www.zillow.com/homedetails/19433-Opal-Ln-285-Santa-Clarita-CA-91350/2077638112_zpid/
Townhouse for sale,"$439,000","7328 Stonehaven Pl, Rancho Cucamonga, CA 91730",7328 Stonehaven Pl,Rancho Cucamonga,CA,91730,34.120757,-117.553284,"1,248","1,637 sqft",1637.0,Townhouse,1993,2 spaces,null,$352,"$443,964","$2,200/mo",https://www.zillow.com/homedetails/7328-Stonehaven-Pl-Rancho-Cucamonga-CA-91730/17313095_zpid/
Townhouse for sale,"$849,000","312 Pasadena Ave Apt C, South Pasadena, CA 91030",312 Pasadena Ave APT C,South Pasadena,CA,91030,34.113082,-118.169165,"1,302",0.46 Acres,20037.6,Townhouse,1979,2 spaces,null,$652,"$753,453","$2,750/mo",https://www.zillow.com/homedetails/312-Pasadena-Ave-APT-C-South-Pasadena-CA-91030/2098452323_zpid/
Townhouse for sale,"$390,000","1841 Spring Straw Ln Unit 3, Chula Vista, CA 91913",1841 Spring Straw Ln UNIT 3,Chula Vista,CA,91913,32.631014,-116.979148,"1,438",0.88 Acres,38332.8,Townhouse,2004,2 spaces,null,$271,"$390,069","$2,450/mo",https://www.zillow.com/homedetails/1841-Spring-Straw-Ln-UNIT-3-Chula-Vista-CA-91913/63761591_zpid/
Foreclosure,"$519,900","11429 Florindo Rd, San Diego, CA 92127",11429 Florindo Rd,San Diego,CA,92127,33.028281,-117.086706,"1,355","3,001 sqft",3001.0,Townhouse,1971,2 spaces,null,$384,"$515,375","$2,690/mo",https://www.zillow.com/homedetails/11429-Florindo-Rd-San-Diego-CA-92127/16740083_zpid/
Townhouse for sale,"$678,000","707 Marinella Aisle #116, Irvine, CA 92606",707 Marinella Aisle #116,Irvine,CA,92606,33.68986,-117.81189,"1,400",100 sqft,100.0,Townhouse,1994,2 spaces,null,$484,"$672,104","$3,200/mo",https://www.zillow.com/homedetails/707-Marinella-Aisle-116-Irvine-CA-92606/25765300_zpid/
Townhouse for sale,"$779,000","44761 Garden Ct, El Macero, CA 95618",44761 Garden Ct,El Macero,CA,95618,38.543729,-121.680224,"1,633","2,365 sqft",2365.0,Townhouse,1977,2 spaces,null,$477,"$760,323","$3,272/mo",https://www.zillow.com/homedetails/44761-Garden-Ct-El-Macero-CA-95618/16540431_zpid/
Townhouse for sale,"$480,000","472 Rio Ct, Corona, CA 92880",472 Rio Ct,Corona,CA,92880,33.89281,-117.56754,"2,258","2,617 sqft",2617.0,Townhouse,2009,2 spaces,null,$213,"$486,736","$2,550/mo",https://www.zillow.com/homedetails/472-Rio-Ct-Corona-CA-92880/95987601_zpid/
Townhouse for sale,"$599,000","7525 Hazard Center Dr, San Diego, CA 92108",7525 Hazard Center Dr,San Diego,CA,92108,32.769753,-117.158435,"1,090",0.87 Acres,37897.2,Townhouse,1997,2 spaces,null,$550,"$599,003","$2,475/mo",https://www.zillow.com/homedetails/7525-Hazard-Center-Dr-San-Diego-CA-92108/16945407_zpid/
Townhouse for sale,"$450,000","303 Mission Villas Rd, San Marcos, CA 92069",303 Mission Villas Rd,San Marcos,CA,92069,33.142933,-117.15665,"1,150",13 sqft,13.0,Townhouse,2017,2 spaces,null,$391,"$441,326","$2,550/mo",https://www.zillow.com/homedetails/303-Mission-Villas-Rd-San-Marcos-CA-92069/250193243_zpid/
Townhouse for sale,"$549,900","5656 Dorsey St, Ventura, CA 93003",5656 Dorsey St,Ventura,CA,93003,34.265059,-119.216105,"1,963","1,306 sqft",1306.0,Townhouse,2005,2 spaces,null,$280,"$555,649","$2,800/mo",https://www.zillow.com/homedetails/5656-Dorsey-St-Ventura-CA-93003/69044801_zpid/
Townhouse for sale,"$385,000","11679 Snowpeak Way Unit 540, Truckee, CA 96161",11679 Snowpeak Way UNIT 540,Truckee,CA,96161,39.354083,-120.258183,861,No Data,null,Townhouse,1974,1 space,null,$447,"$353,277","$2,295/mo",https://www.zillow.com/homedetails/11679-Snowpeak-Way-UNIT-540-Truckee-CA-96161/2137942937_zpid/
Townhouse for sale,"$585,000","5685 Westminster Blvd, Westminster, CA 92683",5685 Westminster Blvd,Westminster,CA,92683,33.759326,-118.030523,"1,547","1,995 sqft",1995.0,Townhouse,1972,2 spaces,null,$378,"$597,895","$2,950/mo",https://www.zillow.com/homedetails/5685-Westminster-Blvd-Westminster-CA-92683/25309857_zpid/
Townhouse for sale,"$399,999","8330 Somerset Ranch Rd Unit A, Paramount, CA 90723",8330 Somerset Ranch Rd UNIT A,Paramount,CA,90723,33.911851,-118.151106,"1,082",1.85 Acres,80586.0,Townhouse,1991,2 spaces,null,$370,"$406,013","$2,330/mo",https://www.zillow.com/homedetails/8330-Somerset-Ranch-Rd-UNIT-A-Paramount-CA-90723/21057414_zpid/
Townhouse for sale,"$549,000","3125 Via Puerta, Carlsbad, CA 92009",3125 Via Puerta,Carlsbad,CA,92009,33.12057,-117.234209,"1,316",1.39 Acres,60548.4,Townhouse,2003,2 spaces,null,$417,"$549,004","$2,700/mo",https://www.zillow.com/homedetails/3125-Via-Puerta-Carlsbad-CA-92009/58481808_zpid/
Townhouse for sale,"$734,900","29621 Windsong Ln, Agoura Hills, CA 91301",29621 Windsong Ln,Agoura Hills,CA,91301,34.149033,-118.771589,"2,070","1,629 sqft",1629.0,Townhouse,1983,2 spaces,null,$355,"$735,573","$3,791/mo",https://www.zillow.com/homedetails/29621-Windsong-Ln-Agoura-Hills-CA-91301/19887409_zpid/
Townhouse for sale,"$598,000","3023 Kaiser Dr Unit H, Santa Clara, CA 95051",3023 Kaiser Dr UNIT H,Santa Clara,CA,95051,37.343149,-121.982251,"1,097",592 sqft,592.0,Townhouse,1971,1 space,null,$545,"$810,622","$2,650/mo",https://www.zillow.com/homedetails/3023-Kaiser-Dr-UNIT-H-Santa-Clara-CA-95051/19596935_zpid/
Townhouse for sale,"$385,000","9490 Carrillo Ave, Montclair, CA 91763",9490 Carrillo Ave,Montclair,CA,91763,34.081676,-117.692065,"1,416","3,201 sqft",3201.0,Townhouse,1979,2 spaces,null,$272,"$362,833","$2,200/mo",https://www.zillow.com/homedetails/9490-Carrillo-Ave-Montclair-CA-91763/17519789_zpid/
Townhouse for sale,"$315,000","20707 Dot St, Saugus, CA 91350",20707 Dot St,Saugus,CA,91350,34.452578,-118.497141,799,3.29 Acres,143312.4,Townhouse,1974,1 space,null,$394,"$315,001","$1,900/mo",https://www.zillow.com/homedetails/20707-Dot-St-Saugus-CA-91350/2131441732_zpid/
