Bath,Bed,City,Half-bath,House_type,Latitude,Listing_type,Longitude,Price,Square_Feet,State,Street,Zip_code
2,2,Los Angeles,0,Condo/Townhome,34.05225,FOR SALE,-118.40849,"$1,949,000","1,639",CA,2222 Avenue of the Stars 1201E,90067
3,4,Santa Rosa,0,Condo/Townhome,38.44093,FOR SALE,-122.80131,"$1,500,000","3,671",CA,5167 Hall Rd,95401
3,4,Merced,1,Condo/Townhome,37.30981,FOR SALE,-120.43886,"$649,900","3,385",CA,2625 E North Bear Creek Dr,95340
2,3,Paso Robles,0,Condo/Townhome,35.60401,FOR SALE,-120.66757,"$559,950","1,821",CA,820 Saint Andrews Circle,93446
3,4,Rocklin,0,Condo/Townhome,38.80384,FOR SALE,-121.26919,"$550,000","2,650",CA,3017 Strand,95765
2,2,Petaluma,0,Condo/Townhome,38.243362,FOR SALE,-122.648918,"$520,000","1,092",CA,7 Liberty Lane,94952
2,3,Oakdale,0,Condo/Townhome,37.77773,FOR SALE,-120.84571,"$375,000","1,738",CA,831 River Bluff Ct,95361
2,4,Riverbank,1,Condo/Townhome,37.71547,FOR SALE,-120.95234,"$370,000","2,052",CA,5323 St Elmo Ct,95367
1,2,Simi Valley,1,Condo/Townhome,34.265548,FOR SALE,-118.662878,"$369,777","1,137",CA,6524 Stoney View Ln 7,93063
1,2,San Luis Obispo,1,Condo/Townhome,35.26114,FOR SALE,-120.70168,"$369,000","1,001",CA,1750 Prefumo Canyon Rd. #55,93405
2,3,Bakersfield,0,Condo/Townhome,35.35881,FOR SALE,-119.15812,"$285,000","1,558",CA,416 Corte Mismo,93314
2,3,Merced,0,Condo/Townhome,37.32092,FOR SALE,-120.45147,"$229,900","1,393",CA,3209 N Parsons Ave,95340
1,2,Lodi,0,Condo/Townhome,38.12397,FOR SALE,-121.26946,"$225,000",812,CA,201 Cherry St,95240
2,3,Stockton,0,Condo/Townhome,38.02732,FOR SALE,-121.30783,"$209,900","1,410",CA,8453 Cayuga Dr,95210
1,1,Modesto,1,Condo/Townhome,37.691357,FOR SALE,-121.010645,"$155,000",791,CA,3701 Colonial Dr. 187,95356
1,2,Union City,1,Condo/Townhome,37.58787,FOR SALE,-122.08037,"$558,000","1,054",CA,4554 Reyes Drive,94587
2,3,San Miguel,0,Condo/Townhome,35.72894,FOR SALE,-120.55592,"$639,000","2,098",CA,5923 Sweetie Lane,93451
1,1,Chula Vista,0,Condo/Townhome,32.6468,FOR SALE,-117.1,"$242,900",796,CA,695 Sea Vale St 105,91910
1,1,Corona,0,Condo/Townhome,33.9006,FOR SALE,-117.532,"$230,000",724,CA,1980 Las Colinas Circle 204,92879
2,3,Antioch,0,Condo/Townhome,38.0026,FOR SALE,-121.829,"$209,950","1,141",CA,2410 Shadow Lane 90,94509
2,2,Clovis,0,Condo/Townhome,36.824608,FOR SALE,-119.724472,"$184,998","1,320",CA,646 W Stuart Avenue,93612
1,2,Palm Desert,0,Condo/Townhome,33.708874,FOR SALE,-116.397904,"$159,900",924,CA,72616 Edgehill Drive 4,92260
2,2,Fremont,1,Condo/Townhome,37.56023,FOR SALE,-122.0536,"$999,999","1,655",CA,5435 Quebec Cmn,94555
3,5,Hilmar,0,Condo/Townhome,37.38819,FOR SALE,-120.809,"$749,000","3,205",CA,17777 Williams Ave,95324
3,3,Oak Park,0,Condo/Townhome,34.17198,FOR SALE,-118.78767,"$699,900","1,611",CA,167 Concerto Dr,91377
2,3,Torrance,5,Condo/Townhome,33.83883,FOR SALE,-118.31923,"$649,900","1,487",CA,830 Arlington Ave,90501
1,2,Santa Cruz,1,Condo/Townhome,36.9647,FOR SALE,-122.03226,"$645,000","1,174",CA,121 Shelter Lagoon Drive,95060
1,2,Campbell,0,Condo/Townhome,37.29272,FOR SALE,-121.94686,"$575,000",810,CA,208 Watson Dr 1,95008
3,3,Valley Glen,0,Condo/Townhome,34.17884,FOR SALE,-118.43751,"$510,000","1,380",CA,5968 Costello,91401
2,4,Tracy,0,Condo/Townhome,37.72573,FOR SALE,-121.4519,"$495,900","1,844",CA,1965 Pagoda Ct,95376
3,5,Oakdale,1,Condo/Townhome,37.75464,FOR SALE,-120.86494,"$469,900","3,310",CA,510 Gelding,95361
2,3,Sunland,0,Condo/Townhome,34.25806,FOR SALE,-118.32389,"$464,999","1,428",CA,8732 Wyngate St,91040
3,4,Turlock,0,Condo/Townhome,37.51417,FOR SALE,-120.87426,"$395,000","1,887",CA,2321 Trotter Way,95380
2,3,Vallejo,1,Condo/Townhome,38.11231,FOR SALE,-122.20852,"$389,500","1,348",CA,300 Locust Dr. #27,94591
3,3,Modesto,0,Condo/Townhome,37.68233,FOR SALE,-120.95131,"$379,000","2,080",CA,3013 Caden Dr,95355
3,3,Canyon Country,0,Condo/Townhome,34.41515,FOR SALE,-118.44714,"$367,000","1,268",CA,18016 River CR #1,91387
2,4,Fontana,1,Condo/Townhome,34.1526,FOR SALE,-117.461,"$369,900","2,047",CA,15723 Parkhouse Drive 102,92336
2,4,Fontana,1,Condo/Townhome,34.1526,FOR SALE,-117.461,"$369,900","2,047",CA,15723 Parkhouse Drive 102,92336
2,2,Canoga Park,0,Condo/Townhome,34.213,FOR SALE,-118.605,"$369,000",905,CA,7826 Topanga Canyon Boulevard 326,91304
2,3,San Diego,0,Condo/Townhome,32.6796,FOR SALE,-117.0393,"$360,000","1,222",CA,7069 Wattle Dr,92139
2,3,Palm Desert,0,Condo/Townhome,33.725121,FOR SALE,-116.363663,"$359,000","1,584",CA,44509 Sorrento Court,92201
2,2,Laguna Woods,0,Condo/Townhome,33.603,FOR SALE,-117.734,"$359,000","1,257",CA,4009 Calle Sonora Oeste 2H,92637
1,2,Lake Forest,0,Condo/Townhome,33.633,FOR SALE,-117.688,"$359,000",873,CA,22752 Madrid Drive,92630
1,1,Fullerton,1,Condo/Townhome,33.902284,FOR SALE,-117.8824014,"$350,000",831,CA,2757 Quail Ridge Circle #38 #38,92835
2,3,Chula Vista,0,Condo/Townhome,32.5954,FOR SALE,-117.04,"$349,000","1,074",CA,1691 Melrose A,91911
2,3,Oxnard,1,Condo/Townhome,34.161225,FOR SALE,-119.154325,"$345,000","1,249",CA,2029 E Bard Road,93033
2,2,Oceanside,0,Condo/Townhome,33.2146,FOR SALE,-117.326,"$319,900","1,250",CA,3760 Vista Campana 2,92057
2,3,Murrieta,0,Condo/Townhome,33.5532,FOR SALE,-117.164,"$315,000","1,408",CA,39903 Millbrook Way 7C,92563
2,2,Murrieta,0,Condo/Townhome,33.5558,FOR SALE,-117.161,"$314,990","1,532",CA,26095 Mayfield Union Way A,92563
1,2,Pomona,0,Condo/Townhome,34.0253,FOR SALE,-117.763,"$309,000",892,CA,16 Country Mile Road,91766
1,2,Pomona,0,Condo/Townhome,34.0253,FOR SALE,-117.763,"$309,000",892,CA,16 Country Mile Road,91766
1,1,Livermore,0,Condo/Townhome,37.6753,FOR SALE,-121.784,"$299,800",674,CA,1001 Murrieta Blvd 90,94550
1,1,San Clemente,0,Condo/Townhome,33.4466,FOR SALE,-117.59856,"$297,500",438,CA,1062 Calle Del Cerro 1227,92672
2,2,Pomona,0,Condo/Townhome,34.0875,FOR SALE,-117.736,"$295,900","1,022",CA,2410 N Towne Avenue 24,91767
1,2,Laguna Woods,0,Condo/Townhome,33.619,FOR SALE,-117.721,"$292,000",866,CA,2328 Via Mariposa West A,92637
3,4,Long Beach,1,Condo/Townhome,33.7684,FOR SALE,-118.125,"$975,000","2,068",CA,5420 Heron Bay,90803
2,3,Newport Beach,1,Condo/Townhome,33.6268,FOR SALE,-117.936,"$845,000","1,775",CA,9 Kialoa Court 103,92663
2,2,Carlsbad,0,Condo/Townhome,33.1439,FOR SALE,-117.324,"$799,998","1,453",CA,4513 Cove Dr 7,92008
2,2,Playa Del Rey,0,Condo/Townhome,33.95754,FOR SALE,-118.43723,"$769,000","1,367",CA,8601 FALMOUTH Avenue 324,90293
3,3,Claremont,0,Condo/Townhome,34.1097,FOR SALE,-117.722,"$675,000","1,854",CA,456 Potomac Way,91711
2,3,San Diego,1,Condo/Townhome,32.882,FOR SALE,-117.219,"$625,000","1,520",CA,9823 Genesee Ave,92121
1,2,San Diego,0,Condo/Townhome,32.7089,FOR SALE,-117.155,"$615,000",976,CA,350 11Th Ave 431,92101
1,2,Oakland,1,Condo/Townhome,37.8002294,FOR SALE,-122.272868,"$599,000","1,200",CA,801 Franklin Street #1234,94607
2,3,Yorba Linda,1,Condo/Townhome,33.8779,FOR SALE,-117.764,"$579,000","1,531",CA,21109 Via Rincon,92887
2,2,Hayward,1,Condo/Townhome,37.6734,FOR SALE,-122.063,"$574,999","1,640",CA,1884 Sally Creek Circle,94541
2,2,Westlake Village,1,Condo/Townhome,34.161,FOR SALE,-118.807046,"$574,900","1,251",CA,308 Via Colinas,91362
2,3,Encino,0,Condo/Townhome,34.1575,FOR SALE,-118.484,"$568,000","1,348",CA,4807 Woodley Avenue 109,91436
3,2,San Dimas,0,Condo/Townhome,34.105,FOR SALE,-117.807,"$565,000","2,000",CA,270 S San Dimas Avenue,91773
2,3,Monterey Park,1,Condo/Townhome,34.0579,FOR SALE,-118.108,"$538,000","1,712",CA,407 S New Avenue A,91755
2,2,San Diego,0,Condo/Townhome,32.7729,FOR SALE,-117.148,"$524,900","1,179",CA,8233 Station Village 2416,92108
2,2,Simi Valley,0,Condo/Townhome,34.28722,FOR SALE,-118.714332,"$509,900","1,373",CA,2916 Esperanza Way D,93063
2,3,Agoura Hills,0,Condo/Townhome,34.148649,FOR SALE,-118.755379,"$509,000","1,149",CA,28850 Conejo View Drive,91301
2,2,Woodland Hills,0,Condo/Townhome,34.1731,FOR SALE,-118.601,"$489,950","1,295",CA,21650 Burbank Boulevard 102,91367
2,4,San Diego,0,Condo/Townhome,32.8268,FOR SALE,-117.094,"$475,000","1,450",CA,5262 Marigot Place,92124
2,2,San Diego,0,Condo/Townhome,32.8035,FOR SALE,-117.237,"$475,000","1,033",CA,1855 Diamond St 113,92109
2,2,San Diego,1,Condo/Townhome,32.7971,FOR SALE,-117.244,"$819,900","1,536",CA,1380 Grand Ave,92109
3,4,Torrance,0,Condo/Townhome,33.8245,FOR SALE,-118.339,"$799,000","1,867",CA,2300 Maple Avenue 166,90503
2,2,Los Angeles,0,Condo/Townhome,34.0616,FOR SALE,-118.358,"$799,000","1,323",CA,750 S Spaulding Avenue 203,90036
2,2,Irvine,1,Condo/Townhome,33.6995,FOR SALE,-117.754,"$795,000","1,824",CA,103 Mission,92620
2,2,Los Angeles,1,Condo/Townhome,34.1,FOR SALE,-118.349,"$795,000","1,559",CA,1601 N Fuller Avenue 104,90046
2,3,Dublin,1,Condo/Townhome,37.7066,FOR SALE,-121.947,"$789,888","1,598",CA,11478 Winding Trail Ln,94568
2,2,Irvine,0,Condo/Townhome,33.6385,FOR SALE,-117.76,"$768,990","1,281",CA,133 Burgess,92618
2,3,Irvine,0,Condo/Townhome,33.6674,FOR SALE,-117.851,"$747,000","1,345",CA,1368 Scholarship,92612
2,2,San Diego,1,Condo/Townhome,32.7089,FOR SALE,-117.155,"$739,900","1,350",CA,350 11th Ave 1131,92101
2,2,Los Angeles (City),0,Condo/Townhome,34.05736,FOR SALE,-118.46764,"$729,000","1,242",CA,612 South BARRINGTON Avenue 214,90049
2,3,San Diego,1,Condo/Townhome,32.7898,FOR SALE,-117.063,"$699,000","2,078",CA,6306 Caminito Estrellado,92120
2,2,Irvine,1,Condo/Townhome,33.6274,FOR SALE,-117.83,"$698,888","1,234",CA,120 Jadestone,92603
2,2,Walnut Creek,0,Condo/Townhome,37.931,FOR SALE,-122.055,"$698,000","1,144",CA,57 Iron Horse Ln,94597
2,2,Irvine,1,Condo/Townhome,33.6764,FOR SALE,-117.83,"$684,900","1,300",CA,46 Alcoba,92614
2,2,Palm Springs,0,Condo/Townhome,33.800426083,FOR SALE,-116.537490098,"$675,000","1,896",CA,951 OCEO Circle,92264
2,3,San Diego,1,Condo/Townhome,32.7818,FOR SALE,-117.149,"$674,900","1,306",CA,2526 Aperture Cir,92108
2,4,Placentia,1,Condo/Townhome,33.8699,FOR SALE,-117.846,"$669,999","1,700",CA,1130 Davis Way,92870
1,1,Los Angeles (City),0,Condo/Townhome,34.0408,FOR SALE,-118.26319,"$665,000",920,CA,1155 South GRAND Avenue 1605,90015
2,3,Aliso Viejo,1,Condo/Townhome,33.5725,FOR SALE,-117.732,"$649,900","1,509",CA,102 Nantucket Lane 97,92656
2,3,Exeter,1,Condo/Townhome,36.294204,FOR SALE,-119.145802,"$179,000","1,702",CA,142 S Filbert,93221
2,2,Big Bear Lake,0,Condo/Townhome,34.2391,FOR SALE,-116.947,"$179,000",827,CA,760 Blue Jay Road 45,92315
1,3,Bakersfield,1,Condo/Townhome,35.3354,FOR SALE,-119.068,"$95,777","1,040",CA,2100 Pinon Springs Circle A,93309
1,2,Imperial Beach,0,Condo/Townhome,32.56701,FOR SALE,-117.1325,"$699,000",806,CA,1670 Seacoast Dr A,91932
1,4,Alta Loma,1,Condo/Townhome,34.15631,FOR SALE,-117.625,"$670,000","2,103",CA,5423 Sapphire St.,91701
4,3,Laguna Woods,0,Condo/Townhome,33.612604,FOR SALE,-117.747114,"$575,000","1,627",CA,5370-3E Punta Alta,92637
1,2,San Luis Obispo,1,Condo/Townhome,35.26308,FOR SALE,-120.69828,"$429,000","1,322",CA,1445 Prefumo Canyon,93405
2,2,Chula Vista,0,Condo/Townhome,32.620078,FOR SALE,-116.958297,"$425,000","1,579",CA,1757 Cripple Creek Dr 1,91915
3,3,Chatsworth,0,Condo/Townhome,34.25034,FOR SALE,-118.60104,"$424,950","1,470",CA,9906 Owensmouth Ave 36,91311
2,4,Turlock,0,Condo/Townhome,37.53571,FOR SALE,-120.88219,"$389,900","2,019",CA,4521 Sunny Oak Dr,95382
1,2,Oceanside,0,Condo/Townhome,33.17706,FOR SALE,-117.2851,"$375,000",968,CA,4168 Baycliff Way,92056
2,4,Modesto,0,Condo/Townhome,37.69441,FOR SALE,-120.9886,"$315,000","1,442",CA,420 Cassidy Ct,95356
1,2,Chula Vista,0,Condo/Townhome,32.5963,FOR SALE,-117.04,"$299,000",889,CA,1679 Melrose Ave D,91911
2,3,Merced,0,Condo/Townhome,37.28663,FOR SALE,-120.49351,"$182,000","1,024",CA,624 Seville Way,95341
1,2,Tracy,0,Condo/Townhome,37.67435,FOR SALE,-121.27459,"$120,000",672,CA,30000 Kasson Road 2M1,95304
2,3,Huntington Beach,1,Condo/Townhome,33.6859,FOR SALE,-117.993,"$730,000","1,585",CA,19058 Delaware Street,92648
2,2,San Jose,0,Condo/Townhome,37.3107524,FOR SALE,-121.8826458,"$728,888","1,096",CA,1375 Lick AVE Apt 628,95110
2,2,La Jolla,0,Condo/Townhome,32.8401,FOR SALE,-117.271,"$725,000",928,CA,7434 Herschel Avenue 1,92037
3,3,Valley Village,0,Condo/Townhome,34.1689,FOR SALE,-118.399,"$719,000","1,903",CA,5404 Bellingham Avenue 2,91607
2,2,Irvine,1,Condo/Townhome,33.6655,FOR SALE,-117.775,"$699,900","1,215",CA,7 Alevera Street,92618
2,1,San Pedro,0,Condo/Townhome,33.7383,FOR SALE,-118.28299,"$699,000","2,300",CA,285 West 6TH Street 106,90731
2,3,Glendale,1,Condo/Townhome,34.16264,FOR SALE,-118.25068,"$699,000","1,780",CA,1130 CAMPBELL Street 101,91207
2,2,Los Angeles (City),0,Condo/Townhome,34.04819,FOR SALE,-118.43367,"$670,000",990,CA,1926 GLENDON Avenue 1,90025
2,2,Laguna Woods,0,Condo/Townhome,33.6049,FOR SALE,-117.743,"$650,000","1,084",CA,3254 San Amadeo A,92637
2,2,Brea,0,Condo/Townhome,33.9079,FOR SALE,-117.848,"$639,000","1,344",CA,426 Maravilla Lane,92823
2,4,San Diego,1,Condo/Townhome,32.8273,FOR SALE,-117.115,"$629,000","1,989",CA,9832 Rimpark Way,92124
2,2,Palm Desert,0,Condo/Townhome,33.691372,FOR SALE,-116.385376,"$629,000","1,629",CA,73356 Irontree Dr Drive,92260
2,2,Irvine,0,Condo/Townhome,33.7192,FOR SALE,-117.778,"$615,000","1,383",CA,49 Leucadia 73,92602
2,3,Poway,0,Condo/Townhome,32.9534,FOR SALE,-117.044,"$599,000","1,288",CA,13286 Creek Park Lane,92064
2,2,Los Angeles (City),0,Condo/Townhome,33.99936,FOR SALE,-118.42394,"$599,000","1,027",CA,4125 Inglewood 4,90066
2,3,Aliso Viejo,1,Condo/Townhome,33.6041,FOR SALE,-117.74,"$589,500","1,372",CA,98 Nightingale Drive,92656
1,2,Los Angeles (City),0,Condo/Townhome,34.04003,FOR SALE,-118.46809,"$589,000",739,CA,1323 South CARMELINA Avenue 216,90025
2,1,Los Angeles (City),0,Condo/Townhome,34.05666,FOR SALE,-118.3952,"$589,000",730,CA,1115 South ELM Drive 319,90035
3,3,Tarzana,0,Condo/Townhome,34.1767,FOR SALE,-118.544,"$575,000","1,896",CA,18850 Hatteras Street 6,91356
1,1,Los Angeles (City),0,Condo/Townhome,34.04799,FOR SALE,-118.23751,"$575,000",735,CA,100 South ALAMEDA Street 279,90012
2,3,Chula Vista,1,Condo/Townhome,32.617911,FOR SALE,-116.956174,"$475,000","1,794",CA,2205 Andalusia Ln 3,91915
3,3,El Monte,0,Condo/Townhome,34.06674,FOR SALE,-118.0067,"$450,000","1,408",CA,3599 Daybreak Street,91732
2,2,Corona,0,Condo/Townhome,33.77383,FOR SALE,-117.50932,"$439,900","1,909",CA,23803 La Posta Court,92883
2,3,Chino,1,Condo/Townhome,33.96663,FOR SALE,-117.62794,"$418,000","1,612",CA,15803  Mcintosh Ave,91708
2,4,Hughson,0,Condo/Townhome,37.60621,FOR SALE,-120.86789,"$369,900","2,070",CA,6716 Metcalf Way,95326
2,3,Woodland,0,Condo/Townhome,38.68295,FOR SALE,-121.79955,"$349,000","1,273",CA,101 Marin Pl,95695
2,4,Turlock,0,Condo/Townhome,37.50516,FOR SALE,-120.86402,"$345,000","1,660",CA,1411 Tramway Pl,95380
2,3,Copperopolis,0,Condo/Townhome,37.9388,FOR SALE,-120.62542,"$325,000","1,804",CA,1204 Cheyenne Rd,95228
2,3,Los Banos,0,Condo/Townhome,37.07088,FOR SALE,-120.83675,"$309,000","1,924",CA,1213 Santa Cruz Way,93635
3,4,Beaumont,0,Condo/Townhome,33.94718,FOR SALE,-116.95641,"$305,000","1,919",CA,1432 Currant Way,92223
2,4,Stockton,0,Condo/Townhome,38.03868,FOR SALE,-121.33391,"$299,950","1,823",CA,1715 Laramie Way,95209
2,3,Turlock,0,Condo/Townhome,37.47476,FOR SALE,-120.84271,"$275,000","1,155",CA,581 E Glenwood Ave,95380
2,3,Huntington Park,0,Condo/Townhome,33.98712,FOR SALE,-118.19513,"$275,000","1,104",CA,5951 Corona Ave. #E,90255
2,3,Madera,0,Condo/Townhome,36.96081,FOR SALE,-120.09907,"$249,000","1,619",CA,141 Countess Lane,93637
3,3,Lomita,0,Condo/Townhome,33.7844,FOR SALE,-118.31048,"$35,400","1,544",CA,1801 263rd St # 127,90717
3,4,Sunnyvale,1,Condo/Townhome,37.38823,FOR SALE,-121.99761,"$1,499,000","1,906",CA,1064 Doheny Ter,94085
2,2,Del Mar,1,Condo/Townhome,32.9374,FOR SALE,-117.25351,"$1,350,000","1,668",CA,13017 Caminito Mar Villa,92014
3,5,San Gabriel,0,Condo/Townhome,34.11573,FOR SALE,-118.09067,"$1,238,000","3,750",CA,8210 Somerset Place,91775
3,3,San Jose,0,Condo/Townhome,37.28875,FOR SALE,-121.76328,"$998,000","1,969",CA,2084 Mataro Way,95135
2,3,San Ramon,0,Condo/Townhome,37.78398,FOR SALE,-121.94196,"$799,000","1,960",CA,6236 Lakeview Cir,94582
1,1,Los Angeles,0,Condo/Townhome,34.0811,FOR SALE,-118.343,"$475,000",622,CA,525 N Sycamore Avenue 430,90036
3,3,Anaheim Hills,0,Condo/Townhome,33.8483,FOR SALE,-117.737,"$474,900","1,181",CA,8084 E Naples Lane,92808
2,3,La Habra,1,Condo/Townhome,33.9264,FOR SALE,-117.963,"$470,000","1,618",CA,1560 Silver Maple Drive,90631
3,3,West Covina,0,Condo/Townhome,34.0605,FOR SALE,-117.911,"$468,888","1,652",CA,1636 Aspen Village Way,91791
2,3,Buena Park,1,Condo/Townhome,33.8867,FOR SALE,-117.992,"$460,000","1,276",CA,8238 Inverness Green,90621
1,1,Long Beach,0,Condo/Townhome,33.7644,FOR SALE,-118.171,"$459,000",632,CA,1750 E Ocean Boulevard 302,90802
1,1,Alhambra,0,Condo/Townhome,34.0801,FOR SALE,-118.113,"$450,000",834,CA,999 E Valley Boulevard 115,91801
3,3,San Pablo,0,Condo/Townhome,37.9551,FOR SALE,-122.337,"$449,888","1,858",CA,2121 Vale Rd 21,94806
2,3,North Hills,1,Condo/Townhome,34.2389,FOR SALE,-118.463,"$445,555","1,603",CA,9300 Burnet Avenue 113,91343
2,2,Aliso Viejo,0,Condo/Townhome,33.5694,FOR SALE,-117.722,"$445,000","1,147",CA,23412 Pacific Park Drive 35K,92656
2,1,Palm Springs,0,Condo/Townhome,33.853988081,FOR SALE,-116.550549192,"$440,000","1,072",CA,360 CABRILLO Road 118,92262
1,2,Placentia,2,Condo/Townhome,33.8706,FOR SALE,-117.866,"$432,000","1,270",CA,110 Kauai Lane,92870
1,1,Ladera Ranch,1,Condo/Townhome,33.5546,FOR SALE,-117.646,"$425,000","1,057",CA,51 Sansovino,92694
1,1,Ladera Ranch,1,Condo/Townhome,33.5546,FOR SALE,-117.646,"$425,000","1,057",CA,51 Sansovino,92694
1,2,Yorba Linda,1,Condo/Townhome,33.8686,FOR SALE,-117.785,"$425,000","1,017",CA,19926 Ridge Manor Way 2,92886
2,2,Woodland Hills,0,Condo/Townhome,34.1725,FOR SALE,-118.6,"$424,999",920,CA,21550 Burbank Boulevard 205,91367
2,2,Lake Forest,0,Condo/Townhome,33.6811,FOR SALE,-117.654,"$418,000","1,060",CA,19431 Rue De Valore 33B,92610
2,4,Chula Vista,0,Condo/Townhome,32.6371,FOR SALE,-117.055,"$410,000","1,618",CA,600 Sheffield Court 30,91910
2,3,San Diego,0,Condo/Townhome,32.8191,FOR SALE,-117.173,"$399,995","1,015",CA,6555 Mount Ada Rd 222,92111
2,2,West Hollywood,0,Condo/Townhome,34.07653,FOR SALE,-118.38513,"$735,000",870,CA,141 Clark Dr #301,90048
2,2,Cupertino,0,Condo/Townhome,37.32281,FOR SALE,-122.0696,"$1,525,000","1,313",CA,22650 Silver Oak LN,95014
2,3,Sacramento,0,Condo/Townhome,38.5665,FOR SALE,-121.48189,"$759,900","1,918",CA,1818 22nd Street 119,95816
2,2,Sacramento,0,Condo/Townhome,38.56649,FOR SALE,-121.48182,"$485,950","1,101",CA,2117 S Street 205,95816
1,2,Citrus Heights,1,Condo/Townhome,38.67539,FOR SALE,-121.32321,"$229,900","1,378",CA,6124 Shadow Lane,95621
2,2,Playa Vista,1,Condo/Townhome,33.97015,FOR SALE,-118.42837,"$1,699,000","2,400",CA,6241 Crescent Park 406,90094
2,2,Los Angeles (City),0,Condo/Townhome,34.06093,FOR SALE,-118.43727,"$1,649,000","1,697",CA,10727 Wilshire 605,90024
2,2,San Francisco,0,Condo/Townhome,37.803841,FOR SALE,-122.414566,"$1,095,000","1,087",CA,690 Chestnut Street Unit: 402,94133
2,3,Santa Clara,1,Condo/Townhome,37.3926,FOR SALE,-121.965,"$1,048,000","1,564",CA,2330 Falling Water Ct,95054
3,4,Irvine,1,Condo/Townhome,33.6797,FOR SALE,-117.746,"$999,000","1,982",CA,126 Barrington,92618
3,4,Newark,1,Condo/Townhome,37.5204,FOR SALE,-121.994,"$999,000","1,902",CA,39868 Sawyer Terrace,94560
2,2,San Francisco,0,Condo/Townhome,37.786945,FOR SALE,-122.424164,"$999,000","1,128",CA,1483 Sutter Street Unit: 706,94109
2,3,Dana Point,1,Condo/Townhome,33.4762,FOR SALE,-117.699,"$950,000","1,859",CA,24586 Polaris Drive 267,92629
2,2,Playa Vista,0,Condo/Townhome,33.972,FOR SALE,-118.429,"$939,000","1,230",CA,5625 Crescent Park W 208,90094
3,3,Redondo Beach,0,Condo/Townhome,33.8172,FOR SALE,-118.38,"$915,000","1,622",CA,1800 S Pacific Coast Highway,90277
3,3,Hawthorne,0,Condo/Townhome,33.8963,FOR SALE,-118.378,"$850,000","1,660",CA,5512 W 149th Place 11,90250
4,2,Los Angeles (City),0,Condo/Townhome,34.10357,FOR SALE,-118.33735,"$850,000","1,370",CA,6735 YUCCA Street 504,90028
2,2,San Diego,1,Condo/Townhome,32.7996,FOR SALE,-117.245,"$829,900","1,540",CA,1369 Felspar St,92109
4,4,Tustin,0,Condo/Townhome,33.7043,FOR SALE,-117.803,"$810,000","2,213",CA,226 Jet Stream,92782
2,3,Rancho Mirage,0,Condo/Townhome,33.7503,FOR SALE,-116.409,"$305,000","2,127",CA,4 Lorca Drive,92270
1,1,Fullerton,0,Condo/Townhome,33.9045,FOR SALE,-117.882,"$289,000",676,CA,3046 Associated Road 43,92835
1,1,Fullerton,0,Condo/Townhome,33.9045,FOR SALE,-117.882,"$289,000",676,CA,3046 Associated Road 43,92835
1,2,Spring Valley,1,Condo/Townhome,32.7197,FOR SALE,-117.002,"$279,000","1,008",CA,1604 Presioca St 23,91977
1,1,Santa Ana,0,Condo/Townhome,33.696,FOR SALE,-117.881,"$277,000",647,CA,1001 W Stevens Avenue 425,92707
1,1,Santa Ana,0,Condo/Townhome,33.696,FOR SALE,-117.881,"$277,000",647,CA,1001 W Stevens Avenue 425,92707
1,2,Paso Robles,1,Condo/Townhome,35.6286,FOR SALE,-120.674,"$269,000",952,CA,714 Tanner Drive A-6,93446
2,2,Palm Springs,0,Condo/Townhome,33.853255,FOR SALE,-116.54496,"$265,000","1,400",CA,200 East RACQUET CLUB Road 45,92262
1,1,Lake Balboa,0,Condo/Townhome,34.1986,FOR SALE,-118.484,"$259,000",608,CA,7035 Woodley Avenue 118,91406
1,2,Lakeside,0,Condo/Townhome,32.8541,FOR SALE,-116.93,"$254,900",728,CA,9731 Winter Gardens Boulevard 66,92040
2,2,Cathedral City,0,Condo/Townhome,33.80101,FOR SALE,-116.46959,"$192,500","1,255",CA,68037 LAKELAND Drive,92234
3,4,Walnut Grove,0,Condo/Townhome,38.25018,FOR SALE,-121.51739,"$849,950","4,548",CA,13920 Islandview Ct,95690
2,3,Turlock,0,Condo/Townhome,37.46161,FOR SALE,-120.86211,"$849,900","1,842",CA,3336 S Soderquist Rd,95380
2,2,Rancho Santa Margarita,1,Condo/Townhome,33.65664,FOR SALE,-117.58425,"$519,900","1,350",CA,11  Vista Sierra 62,92688
2,2,Laguna Woods,0,Condo/Townhome,33.60761,FOR SALE,-117.74385,"$450,000","1,079",CA,3299 Via Carrizo #P,92637
2,2,Rancho Cucamonga,1,Condo/Townhome,34.102619171,FOR SALE,-117.584228516,"$445,000","1,838",CA,8072 Cresta Bella Road,91730
3,4,Lancaster,0,Condo/Townhome,34.69292,FOR SALE,-118.1598,"$415,000","2,830",CA,1631 Norberry St,93534
2,3,Santa Rosa,1,Condo/Townhome,38.45175,FOR SALE,-122.76816,"$410,000","1,127",CA,1548 Pinebrook Place,95403
2,2,Mira Mesa,0,Condo/Townhome,32.9013,FOR SALE,-117.121,"$450,000","1,058",CA,9959 Maya Linda Rd. 26,92126
1,1,Del Mar,0,Condo/Townhome,32.9479,FOR SALE,-117.245,"$449,000",800,CA,13681 Ruette Le Parc F,92014
3,3,Alhambra,0,Condo/Townhome,34.0803,FOR SALE,-118.141,"$440,000","1,220",CA,1016 S Marengo Avenue 6,91803
2,2,San Pedro,0,Condo/Townhome,33.7383,FOR SALE,-118.283,"$439,900","1,080",CA,285 W 6th Street 301,90731
2,2,Huntington Beach,0,Condo/Townhome,33.6777,FOR SALE,-117.995,"$439,900",973,CA,215 Wichita Avenue 204,92648
2,2,Signal Hill,0,Condo/Townhome,33.7922,FOR SALE,-118.16,"$425,000","1,111",CA,1903 Temple Avenue 320,90755
3,2,Saugus,0,Condo/Townhome,34.4457,FOR SALE,-118.477,"$420,000","1,440",CA,28424 Mirabelle Lane,91350
1,2,Walnut Creek,0,Condo/Townhome,37.9187,FOR SALE,-122.062,"$418,000",924,CA,2548 Jones Rd 9,94597
1,3,Ventura,1,Condo/Townhome,34.262331,FOR SALE,-119.194802,"$414,900","1,182",CA,1656 Tapir Circle,93003
1,1,Sherman Oaks,0,Condo/Townhome,34.1531,FOR SALE,-118.45384,"$379,000",698,CA,4501 CEDROS Avenue 130,91403
2,2,San Diego,0,Condo/Townhome,32.9622,FOR SALE,-117.1,"$375,000",881,CA,10375 Azuaga St 115,92129
1,2,Anaheim Hills,0,Condo/Townhome,33.8654,FOR SALE,-117.794,"$364,990",882,CA,5486 E Willow Woods Lane B,92807
2,2,Corona,0,Condo/Townhome,33.8746,FOR SALE,-117.627,"$359,900","1,004",CA,3160 Castelar Court 201,92882
2,2,Laguna Woods,0,Condo/Townhome,33.605,FOR SALE,-117.745,"$357,000","1,145",CA,3271 San Amadeo N,92637
1,2,Mission Viejo,1,Condo/Townhome,33.6294,FOR SALE,-117.671,"$349,900",940,CA,22928 Via Nuez 36,92691
2,2,Spring Valley,1,Condo/Townhome,32.7314,FOR SALE,-117.008,"$335,000","1,020",CA,2267 Kings View Circle,91977
2,4,Winchester,1,Condo/Townhome,33.5933,FOR SALE,-117.102,"$330,000","2,016",CA,31887 Delfina Way,92596
3,3,Palm Desert,0,Condo/Townhome,33.742365,FOR SALE,-116.382185,"$325,000","2,056",CA,75 Maximo Way,92260
2,2,Long Beach,0,Condo/Townhome,33.7781,FOR SALE,-118.182,"$319,900",892,CA,839 E 9th Street 10,90813
2,2,Martinez,1,Condo/Townhome,37.981,FOR SALE,-122.097,"$315,000","1,122",CA,1608 Ashwood Dr,94553
2,2,San Diego,0,Condo/Townhome,32.7769,FOR SALE,-117.253,"$1,275,000",725,CA,3443 Ocean Front Walk D,92109
2,3,Irvine,1,Condo/Townhome,33.6237,FOR SALE,-117.824,"$1,198,000","1,628",CA,48 Gardenpath,92603
2,3,Solana Beach,1,Condo/Townhome,32.9978,FOR SALE,-117.255,"$1,099,000","1,737",CA,964 Santa Helena Park Ct.,92075
4,3,Moraga,0,Condo/Townhome,37.8284,FOR SALE,-122.134,"$1,098,000","2,222",CA,105 Westchester St.,94556
2,2,Avalon,0,Condo/Townhome,33.3555,FOR SALE,-118.332,"$1,035,000","1,403",CA,87 Gaviota,90704
2,3,Huntington Beach,1,Condo/Townhome,33.7238,FOR SALE,-118.073,"$929,000","1,740",CA,16425 Lazare Lane 93,92649
2,2,Marina Del Rey,1,Condo/Townhome,33.98138,FOR SALE,-118.43778,"$920,000","1,582",CA,13232 MINDANAO Way,90292
2,3,Walnut Creek,1,Condo/Townhome,37.9165,FOR SALE,-122.056,"$899,000","1,770",CA,2480 Westcliffe Ln B,94597
2,2,San Diego,0,Condo/Townhome,32.7374,FOR SALE,-117.16,"$879,000","1,320",CA,3060 6th Avenue 14,92103
2,4,Aliso Viejo,1,Condo/Townhome,33.574,FOR SALE,-117.732,"$759,000","1,865",CA,9 Nantucket Lane,92656
2,3,Monrovia,1,Condo/Townhome,34.1462,FOR SALE,-118.002,"$648,000","1,820",CA,522 Date Court,91016
2,4,Placentia,1,Condo/Townhome,33.8692,FOR SALE,-117.847,"$619,999","1,700",CA,1067 Moreno Way,92870
2,3,Santa Ana,1,Condo/Townhome,33.7741,FOR SALE,-117.865,"$619,000","1,841",CA,442 E Jeanette Lane,92705
3,3,San Marcos,1,Condo/Townhome,33.1445,FOR SALE,-117.17,"$559,000","1,647",CA,421 Mission Villas Road,92069
3,3,Rancho Mirage,0,Condo/Townhome,33.789463,FOR SALE,-116.431908,"$539,000","3,489",CA,745 Inverness Drive,92270
2,2,San Diego,1,Condo/Townhome,33.0501,FOR SALE,-117.069,"$539,000","1,366",CA,18582 Caminito Pasadero,92128
2,2,Carlsbad,1,Condo/Townhome,33.127,FOR SALE,-117.242,"$525,000","1,322",CA,6170 Citracado Circle,92009
1,2,Lomita,2,Condo/Townhome,33.7855,FOR SALE,-118.319,"$510,000","1,485",CA,26120 Narbonne Avenue J,90717
1,2,Tustin,1,Condo/Townhome,33.7311,FOR SALE,-117.807,"$469,999","1,078",CA,13785 Browning Avenue 6,92780
2,2,Orange,0,Condo/Townhome,33.7823,FOR SALE,-117.876,"$455,000","1,602",CA,400 S Flower Street 2,92868
3,2,Los Angeles (City),0,Condo/Townhome,34.1014,FOR SALE,-118.32545,"$1,050,000","1,627",CA,6250 HOLLYWOOD Boulevard 6i,90028
3,3,San Francisco,1,Condo/Townhome,37.730114,FOR SALE,-122.416885,"$1,049,000","1,693",CA,681 Sweeny Street,94134
2,2,Solana Beach,0,Condo/Townhome,32.981,FOR SALE,-117.265,"$1,015,000","1,218",CA,234 Turf View Drive,92075
2,2,San Diego,1,Condo/Townhome,32.7227,FOR SALE,-117.231,"$999,900","2,162",CA,3025 Byron 207,92106
2,2,Santa Monica,0,Condo/Townhome,34.0251,FOR SALE,-118.502,"$999,800","1,145",CA,834 6th Street 101,90403
2,3,Irvine,1,Condo/Townhome,33.737,FOR SALE,-117.751,"$880,000","1,772",CA,147 Rodeo,92602
2,3,Irvine,1,Condo/Townhome,33.737,FOR SALE,-117.751,"$880,000","1,772",CA,147 Rodeo,92602
2,2,West Hollywood,1,Condo/Townhome,34.08751,FOR SALE,-118.38422,"$879,000","1,340",CA,8839 CYNTHIA Street 6,90069
2,3,San Juan Capistrano,1,Condo/Townhome,33.4905,FOR SALE,-117.642,"$865,000","2,159",CA,28197 Camino Del Rio,92675
2,3,Laguna Woods,0,Condo/Townhome,33.6067,FOR SALE,-117.745,"$814,000","1,253",CA,3325 Via Carrizo C,92637
2,2,Hawthorne,0,Condo/Townhome,33.9151,FOR SALE,-118.377,"$799,000","1,584",CA,12922 Union Avenue 402,90250
2,2,Los Angeles (City),0,Condo/Townhome,0.0,FOR SALE,0.0,"$799,000","1,126",CA,1155 North LA CIENEGA 106,90069
2,2,Dana Point,0,Condo/Townhome,33.4844,FOR SALE,-117.712,"$768,500","1,045",CA,23 Wightman Court,92629
2,3,Ladera Ranch,1,Condo/Townhome,33.5564,FOR SALE,-117.642,"$745,000","1,703",CA,1 Potters Bend,92694
2,3,Irvine,1,Condo/Townhome,33.7445,FOR SALE,-117.769,"$729,900","1,640",CA,38 Ardmore,92602
2,3,Irvine,1,Condo/Townhome,33.7445,FOR SALE,-117.769,"$729,900","1,640",CA,38 Ardmore,92602
2,2,San Diego,0,Condo/Townhome,32.7212,FOR SALE,-117.168,"$729,000","1,383",CA,1501 India Street 301,92101
3,3,Tustin,0,Condo/Townhome,33.7041,FOR SALE,-117.802,"$699,000","1,607",CA,216 Liberty Street,92782
3,3,Tustin,0,Condo/Townhome,33.7041,FOR SALE,-117.802,"$699,000","1,607",CA,216 Liberty Street,92782
1,1,San Diego,0,Condo/Townhome,32.7587,FOR SALE,-117.083,"$264,900",609,CA,4466 Dawson Ave 5,92115
1,2,Escondido,0,Condo/Townhome,33.1343,FOR SALE,-117.079,"$260,000","1,008",CA,907 N Fig Street F,92026
1,1,San Diego,0,Condo/Townhome,32.7828,FOR SALE,-117.112,"$259,900",530,CA,5958 Rancho Mission Rd 209,92108
2,2,Murrieta,0,Condo/Townhome,33.5424,FOR SALE,-117.168,"$254,900",890,CA,26368 Arboretum Way 3204,92563
2,2,Palm Springs,0,Condo/Townhome,33.81779,FOR SALE,-116.51172,"$252,000","1,012",CA,401 South EL CIELO Road 39,92262
2,2,Antioch,0,Condo/Townhome,38.0022,FOR SALE,-121.83,"$195,000",944,CA,2415 Horizon Ln 127,94509
1,3,Fresno,1,Condo/Townhome,36.807298,FOR SALE,-119.731979,"$150,000","1,250",CA,4929 N Winery Circle Unit: 116,93726
2,2,Indio,0,Condo/Townhome,33.704311,FOR SALE,-116.236885,"$134,000",942,CA,47395 Monroe Street 195,92201
2,2,Paradise,0,Condo/Townhome,39.7635,FOR SALE,-121.613,"$84,900",973,CA,5975 Maxwell Drive 21,95969
2,3,San Jose,1,Condo/Townhome,37.31631,FOR SALE,-121.76448,"$1,098,888","1,532",CA,4295 Voltaire Street,95135
3,3,Oakdale,0,Condo/Townhome,37.736306,FOR SALE,-120.906716,"$779,000","2,751",CA,4849 Santa Fe Ave,95361
1,1,La Jolla,0,Condo/Townhome,32.83978,FOR SALE,-117.27074,"$599,000",728,CA,7411 Herschel Ave 1D,92037
2,2,Sacramento,1,Condo/Townhome,38.67975,FOR SALE,-121.5222,"$559,999","2,538",CA,2642 Aspen Valley Ln,95835
3,4,San Diego,1,Condo/Townhome,32.625105796,FOR SALE,-117.020137099,"$519,000","2,034",CA,1251 Paseo Sea Breeze 20,92154
2,3,Lathrop,1,Condo/Townhome,37.793173,FOR SALE,-121.31596,"$499,995","2,100",CA,936 River Bend Dr,95330
2,2,Moorpark,1,Condo/Townhome,34.26578,FOR SALE,-118.89995,"$459,999","1,420",CA,11844 Barletta Pl,93021
2,2,San Diego,0,Condo/Townhome,32.86355,FOR SALE,-117.20041,"$459,000",848,CA,7120 Shoreline 2207,92122
3,5,Los Banos,0,Condo/Townhome,37.06798,FOR SALE,-120.8211,"$445,000","2,645",CA,2188 Naples Ct,93635
2,3,San Diego,1,Condo/Townhome,32.563579616893,FOR SALE,-117.014237391114,"$410,000","1,686",CA,5426 Santa Alicia,92154
2,4,Modesto,1,Condo/Townhome,37.60449,FOR SALE,-121.02422,"$336,900","2,387",CA,1705 St Charlotte Ln,95358
2,2,Carlsbad,0,Condo/Townhome,33.1439,FOR SALE,-117.324,"$695,000","1,254",CA,4513 Cove Dr 5,92008
2,3,Los Angeles (City),0,Condo/Townhome,34.06318,FOR SALE,-118.29448,"$680,000","1,480",CA,625 South BERENDO Street 307,90005
2,3,Fremont,0,Condo/Townhome,37.5419,FOR SALE,-121.979,"$675,000","1,389",CA,4067 Murray Cmn 65,94538
3,3,San Juan Capistrano,0,Condo/Townhome,33.4903,FOR SALE,-117.654,"$657,500","1,763",CA,27387 Paseo La Serna,92675
2,4,La Mirada,1,Condo/Townhome,33.9208,FOR SALE,-117.995,"$629,500","2,016",CA,12203 Santa Gertrudes Avenue 30,90638
3,4,Garden Grove,1,Condo/Townhome,33.7826,FOR SALE,-117.952,"$619,990","1,639",CA,12234 Greenleaf Lane,92840
3,3,Alhambra,0,Condo/Townhome,34.0985,FOR SALE,-118.134,"$618,000","1,404",CA,511 N 3rd Street A,91801
1,2,Walnut Creek,1,Condo/Townhome,37.9157,FOR SALE,-122.058,"$600,000","1,166",CA,450 Westcliffe Pl,94597
2,3,Rancho Mission Viejo,1,Condo/Townhome,33.5253,FOR SALE,-117.621,"$599,900","1,648",CA,28 Sembrio Street,92694
2,3,Mission Viejo,1,Condo/Townhome,33.6431,FOR SALE,-117.642,"$599,900","1,477",CA,22114 Antigua 206,92692
1,2,San Diego,1,Condo/Townhome,32.7768,FOR SALE,-117.18,"$599,000","1,110",CA,6355 Caminito Del Cervato,92111
2,3,Garden Grove,1,Condo/Townhome,33.7826,FOR SALE,-117.952,"$596,490","1,501",CA,12225 Greenleaf Lane,92840
2,2,Irvine,1,Condo/Townhome,33.6817,FOR SALE,-117.755,"$588,000","1,172",CA,88 Bronze Leaf,92620
3,4,Covina,0,Condo/Townhome,34.0953,FOR SALE,-117.844,"$579,000","1,730",CA,2190 E Cypress Street,91724
3,4,Canyon Country,0,Condo/Townhome,34.4322,FOR SALE,-118.412,"$575,900","2,336",CA,28977 Sam Place,91387
3,3,Valencia,0,Condo/Townhome,34.4429,FOR SALE,-118.569,"$575,000","1,936",CA,24350 Lorenzo Lane,91355
2,3,North Hollywood,1,Condo/Townhome,34.173,FOR SALE,-118.381,"$575,000","1,369",CA,5625 Farmdale Avenue 11,91601
2,3,Laguna Niguel,0,Condo/Townhome,33.5039,FOR SALE,-117.72,"$560,000","1,219",CA,31624 W Nine Drive GL109,92677
2,3,Laguna Niguel,0,Condo/Townhome,33.5039,FOR SALE,-117.72,"$560,000","1,219",CA,31624 W Nine Drive GL109,92677
1,2,Culver City,0,Condo/Townhome,34.0084,FOR SALE,-118.396,"$550,000",980,CA,4900 Overland Avenue 291,90230
5,5,Valley Springs,2,Condo/Townhome,38.13655,FOR SALE,-120.9368,"$795,000","6,092",CA,8222 Center Dr.,95252
1,2,San Jose,0,Condo/Townhome,37.25653,FOR SALE,-121.84106,"$625,000",942,CA,5425 Colony Green Drive,95123
3,4,Galt,1,Condo/Townhome,38.26272,FOR SALE,-121.32061,"$520,000","2,939",CA,414 Alpen Rose Way,95632
3,4,Roseville,0,Condo/Townhome,38.75295,FOR SALE,-121.31971,"$499,000","2,150",CA,2227 Longview Dr,95747
2,2,Torrance,0,Condo/Townhome,33.87336,FOR SALE,-118.3144,"$499,000","1,091",CA,2025 Artesia Boulevard A,90504
1,2,Irvine,0,Condo/Townhome,33.6867,FOR SALE,-117.81123,"$475,000",917,CA,900  Solvay Aisle,92606
2,3,Chula Vista,1,Condo/Townhome,32.63742,FOR SALE,-116.99641,"$450,000","1,653",CA,1511 Apache Dr A,91910
2,2,Port Hueneme,0,Condo/Townhome,34.17829,FOR SALE,-119.19896,"$435,000","1,145",CA,210 E Bay Blvd,93041
2,4,Stockton,1,Condo/Townhome,38.05291,FOR SALE,-121.38831,"$434,900","2,140",CA,10516 Clarks Fork Cir,95219
3,3,El Monte,0,Condo/Townhome,34.09095,FOR SALE,-118.04058,"$428,888","1,206",CA,10451 Mulhall St. # 19,91731
2,3,Simi Valley,1,Condo/Townhome,34.28656,FOR SALE,-118.70994,"$419,000","1,540",CA,4359 Alamo St,93063
2,4,Oakdale,1,Condo/Townhome,37.77784,FOR SALE,-120.83935,"$383,999","2,089",CA,674 Peachcrest Dr,95361
1,2,Torrance,0,Condo/Townhome,33.81373,FOR SALE,-118.2949,"$369,000",796,CA,23300 Marigold Avenue Z201,90502
1,5,Turlock,0,Condo/Townhome,37.48306,FOR SALE,-120.84717,"$349,900","2,068",CA,810 W F St,95380
1,2,La Mesa,1,Condo/Townhome,32.78355,FOR SALE,-117.03497,"$314,999","1,068",CA,5700 Baltimore Dr 76,91942
2,3,Turlock,0,Condo/Townhome,37.51583,FOR SALE,-120.86394,"$299,900","1,402",CA,1360 Campbell Way,95382
1,2,Hilmar,0,Condo/Townhome,37.41124,FOR SALE,-120.852,"$220,000","1,125",CA,20109 American Ave,95324
1,2,Sacramento,1,Condo/Townhome,38.67159,FOR SALE,-121.35744,"$95,000",933,CA,5718 Hillsdale Blvd,95842
2,3,Rosamond,0,Condo/Townhome,34.86183,FOR SALE,-118.2105,"$45,000","1,536",CA,4500 W Rosamond Blvd Spc 7a,93560
2,3,La Jolla,0,Condo/Townhome,32.83932,FOR SALE,-117.28138,"$6,500,000","2,738",CA,202 Coast Bld 3,92037
1,1,Tustin,1,Condo/Townhome,33.7126,FOR SALE,-117.819,"$499,000","1,391",CA,15231 Cambridge Street,92782
2,2,Anaheim,0,Condo/Townhome,33.8296,FOR SALE,-117.906,"$499,000","1,203",CA,714 S Casita Street,92805
2,2,North Hollywood,0,Condo/Townhome,34.1588,FOR SALE,-118.375,"$499,000",974,CA,11230 Peach Grove Street 105,91601
2,2,San Luis Obispo,1,Condo/Townhome,35.2607,FOR SALE,-120.694,"$485,000","1,369",CA,1106 Oceanaire Drive 26,93405
4,4,chula Vista,1,Condo/Townhome,32.6377,FOR SALE,-117.081,"$479,900","2,430",CA,368 Park Way Unit 4,91910
2,3,Chula Vista,1,Condo/Townhome,32.6336,FOR SALE,-116.94,"$475,000","1,646",CA,2737 Crown Ridge Road 2,91915
2,2,San Diego,0,Condo/Townhome,32.9502,FOR SALE,-117.109,"$474,900","1,056",CA,9971 Paseo Montril,92129
2,3,Tarzana,0,Condo/Townhome,34.1704,FOR SALE,-118.528,"$469,000","1,464",CA,18134 Killion Street 1,91356
2,2,Valencia,0,Condo/Townhome,34.4391,FOR SALE,-118.556,"$465,000","1,352",CA,27461 Acacia Drive,91354
2,2,Valencia,0,Condo/Townhome,34.4397,FOR SALE,-118.556,"$465,000","1,352",CA,24014 Cottage Circle Drive,91354
3,3,Panorama City,0,Condo/Townhome,34.2366,FOR SALE,-118.452,"$459,000","1,840",CA,9141 Tobias Avenue A,91402
2,2,Laguna Hills,0,Condo/Townhome,33.6234,FOR SALE,-117.744,"$449,900","1,368",CA,23346 Caminito Los Pocitos 125,92653
3,3,Stevenson Ranch,0,Condo/Townhome,34.3898,FOR SALE,-118.579,"$449,900","1,232",CA,25781 Perlman Place B,91381
3,2,Valley Glen,0,Condo/Townhome,34.1936,FOR SALE,-118.438,"$449,900","1,094",CA,14018 Vanowen Street 7,91405
1,1,Burbank,0,Condo/Townhome,34.1513,FOR SALE,-118.343,"$449,000",768,CA,151 N Maple Street 208,91505
1,2,Los Alamitos,0,Condo/Townhome,33.7996,FOR SALE,-118.066,"$448,000",900,CA,3845 Farquhar Avenue 308,90720
2,2,Seal Beach,0,Condo/Townhome,33.7829,FOR SALE,-118.076,"$445,000","1,220",CA,12400 Montecito Road 307,90740
2,2,Seal Beach,0,Condo/Townhome,33.7829,FOR SALE,-118.076,"$445,000","1,220",CA,12400 Montecito Road 307,90740
1,2,Orange,1,Condo/Townhome,33.795,FOR SALE,-117.859,"$430,000","1,190",CA,700 W Walnut Avenue 14,92868
2,3,Hacienda Heights,1,Condo/Townhome,33.9985,FOR SALE,-117.941,"$429,000","1,187",CA,1452 Forest Glen Drive 27,91745
1,2,Lemon Grove,0,Condo/Townhome,32.74056,FOR SALE,-117.04346,"$310,000","1,026",CA,3224 Massachusetts Ave Unit 6,91945
1,1,Ojai,0,Condo/Townhome,34.4225,FOR SALE,-119.29131,"$269,900",666,CA,"848 Woodland Ave, Unit 19",93023
1,1,Oceanside,0,Condo/Townhome,33.2461,FOR SALE,-117.2824,"$265,000",762,CA,5070 Via Manos E,92057
2,3,Jackson,0,Condo/Townhome,38.34462,FOR SALE,-120.76189,"$248,000","1,466",CA,511 Clinton Road,95642
2,2,Chester,0,Condo/Townhome,40.29472,FOR SALE,-121.23827,"$239,000","1,246",CA,243 Watson Road,96020
1,2,Desert Hot Springs,0,Condo/Townhome,33.97798,FOR SALE,-116.54139,"$71,900",829,CA,9643  Spyglass Avenue 37,92240
2,2,Pacific Palisades,0,Condo/Townhome,34.04025,FOR SALE,-118.55441,"$2,750,000","2,041",CA,17351 West SUNSET 2A,90272
2,2,San Francisco,1,Condo/Townhome,37.786072,FOR SALE,-122.392609,"$2,050,000","1,724",CA,489 Harrison Street Unit: #306,94105
5,5,Huntington Beach,1,Condo/Townhome,33.6513,FOR SALE,-117.983,"$1,988,000","4,142",CA,21391 Abigail Ln,92646
5,5,Huntington Beach,1,Condo/Townhome,33.6513,FOR SALE,-117.983,"$1,988,000","4,142",CA,21391 Abigail Ln,92646
2,2,San Diego,1,Condo/Townhome,32.7193,FOR SALE,-117.171,"$1,595,000","1,811",CA,1325 Pacific Hwy 2201,92101
3,3,Los Angeles (City),0,Condo/Townhome,34.06061,FOR SALE,-118.42469,"$1,559,000","2,900",CA,1520 South BEVERLY GLEN 208,90024
3,4,Huntington Beach,0,Condo/Townhome,33.7283,FOR SALE,-118.064,"$1,325,000","2,044",CA,16108 Tortola Circle,92649
2,3,Irvine,0,Condo/Townhome,33.6439,FOR SALE,-117.812,"$1,175,000","2,200",CA,25 Canyon Ridge,92603
3,3,mammoth lakes,0,Condo/Townhome,37.6511,FOR SALE,-118.986,"$1,099,000","1,457",CA,1111 Forest Trail #1311 Grand Sierra Lodge #1311,93546
2,2,Malibu,0,Condo/Townhome,34.0433,FOR SALE,-118.572,"$1,065,000","1,032",CA,18203 Coastline Drive 9,90265
2,3,Los Angeles (City),1,Condo/Townhome,34.0414,FOR SALE,-118.45875,"$940,000","1,460",CA,1529 South WESTGATE Avenue 101,90025
2,2,Dana Point,0,Condo/Townhome,33.4836,FOR SALE,-117.713,"$895,000","1,357",CA,17 Centre Court 86,92629
2,2,Los Angeles,0,Condo/Townhome,34.0456,FOR SALE,-118.259,"$870,000","1,360",CA,801 S. Grand Ave. 1502,90017
1,1,Livingston,0,Condo/Townhome,37.38999,FOR SALE,-120.71888,"$159,000",324,CA,1544 Swan St,95334
2,2,Los Angeles,1,Condo/Townhome,34.05637,FOR SALE,-118.41477,"$4,150,000","2,520",CA,1 W Century Dr Unit 27D,90067
3,2,Malibu,0,Condo/Townhome,34.04873,FOR SALE,-118.95302,"$1,395,000","1,337",CA,11952 Whalers Ln,90265
2,3,Carlsbad,0,Condo/Townhome,33.1608,FOR SALE,-117.3527,"$1,310,000","2,367",CA,2744 Carlsbad Blvd 203,92008
2,2,Encino,1,Condo/Townhome,34.1575,FOR SALE,-118.50016,"$1,200,000","2,267",CA,4720 Park Encino Ln Unit 120,91436
2,2,Beverly Hills,1,Condo/Townhome,34.07615,FOR SALE,-118.39079,"$979,000","1,552",CA,410 N Oakhurst Dr Apt 102,90210
2,3,Santa Cruz,1,Condo/Townhome,36.97721,FOR SALE,-122.04922,"$949,500","1,855",CA,104 Village Cir,95060
1,2,Los Angeles,0,Condo/Townhome,34.11248,FOR SALE,-118.28639,"$915,000","1,005",CA,4411 Los Feliz Unit 902,90027
2,3,Los Angeles,1,Condo/Townhome,34.04167,FOR SALE,-118.45324,"$819,000","1,508",CA,11652 Iowa Ave Unit 1,90025
4,5,Covina,0,Condo/Townhome,34.074211,FOR SALE,-117.865611,"$798,000","2,297",CA,850 S Forest Hills Drive,91724
2,3,Fortuna,1,Condo/Townhome,40.57569,FOR SALE,-124.12767,"$795,000","2,549",CA,1155 Huffman Drive,95540
4,4,Irvine,0,Condo/Townhome,33.70111,FOR SALE,-117.7301,"$788,800","1,929",CA,118 Capricorn,92618
2,4,Monrovia,1,Condo/Townhome,34.14532,FOR SALE,-118.01875,"$769,950","1,408",CA,902 W Colorado Boulevard #D,91016
2,4,Monrovia,1,Condo/Townhome,34.14532,FOR SALE,-118.01875,"$769,950","1,408",CA,902 W Colorado Boulevard #B,91016
2,3,Monrovia,1,Condo/Townhome,34.14532,FOR SALE,-118.01875,"$749,950","1,318",CA,902 W Colorado Boulevard #C,91016
2,3,Monrovia,1,Condo/Townhome,34.14532,FOR SALE,-118.01875,"$749,950","1,318",CA,902 W Colorado Boulevard #A,91016
2,4,Rosemead,1,Condo/Townhome,34.08557,FOR SALE,-118.0827,"$729,000","1,830",CA,4445 Walnut Grove Avenue,91770
3,4,Los Angeles,1,Condo/Townhome,34.08062,FOR SALE,-118.16265,"$715,000","2,183",CA,2979 Lowell Avenue,90032
3,3,La Quinta,1,Condo/Townhome,33.65146,FOR SALE,-116.2627,"$649,000","3,054",CA,54873 Inverness Way,92253
1,1,Santa Clara,0,Condo/Townhome,37.32592,FOR SALE,-121.97147,"$649,000",656,CA,121 Buckingham Dr 46,95051
1,2,Upland,1,Condo/Townhome,34.0906,FOR SALE,-117.676,"$290,000",994,CA,305 Spencer Avenue 125,91786
1,2,El Cajon,0,Condo/Townhome,32.8165,FOR SALE,-116.96,"$280,000",745,CA,1423 Graves Ave 147,92021
1,2,Ontario,0,Condo/Townhome,34.083,FOR SALE,-117.613,"$275,000",816,CA,1360 N Placer Avenue,91764
1,2,Ontario,0,Condo/Townhome,34.082,FOR SALE,-117.613,"$275,000",816,CA,1324 N Placer Avenue,91764
1,1,Long Beach,0,Condo/Townhome,33.7723,FOR SALE,-118.176,"$259,000",521,CA,416 Orange Avenue 6,90802
1,2,Palm Springs,1,Condo/Townhome,33.84721,FOR SALE,-116.54993,"$250,000","1,088",CA,345 West MARISCAL Road,92262
1,2,South Lake Tahoe,0,Condo/Townhome,38.944305,FOR SALE,-119.970032,"$220,000",812,CA,3344 Sandy Way Unit: 6,96150
1,1,Corona,0,Condo/Townhome,33.8641,FOR SALE,-117.597,"$199,950",731,CA,1565 Border Avenue G,92882
2,2,Irvine,0,Condo/Townhome,33.6586,FOR SALE,-117.83086,"$735,000","1,507",CA,9  Madrona,92612
4,5,Modesto,0,Condo/Townhome,37.70202,FOR SALE,-121.03849,"$525,000","3,497",CA,4209 Penninsula Dr,95356
2,2,Torrance,0,Condo/Townhome,33.820463,FOR SALE,-118.341895,"$520,000","1,117",CA,22904 Nadine Circle A,90505
2,4,Modesto,1,Condo/Townhome,37.60439,FOR SALE,-121.01516,"$278,900","1,610",CA,1601 Waterloo Ct,95358
2,2,San Francisco,1,Condo/Townhome,37.75564,FOR SALE,-122.44339,"$1,149,000","1,300",CA,672 Corbett Ave Apt B,94114
2,2,Pacific Grove,0,Condo/Townhome,36.60386,FOR SALE,-121.92273,"$837,000","1,404",CA,50 Glen Lake Dr,93950
2,2,San Diego,0,Condo/Townhome,32.72125,FOR SALE,-117.16784,"$720,000","1,540",CA,1501 India St.,92101
2,3,Greenbrae,0,Condo/Townhome,37.94751,FOR SALE,-122.53321,"$699,000","1,130",CA,840 Via Casitas,94904
2,2,Irvine,0,Condo/Townhome,33.68046,FOR SALE,-117.75615,"$625,000","1,182",CA,110 Evening Sun,92620
2,3,Carlsbad,0,Condo/Townhome,33.11456,FOR SALE,-117.2316,"$612,000","1,406",CA,6480 Terraza Portico,92009
2,2,Pasadena,0,Condo/Townhome,34.13734,FOR SALE,-118.1372,"$469,000","1,019",CA,497 South El Molino Avenue #310,91101
2,2,Thousand Oaks,1,Condo/Townhome,34.180286,FOR SALE,-118.850154,"$469,900","1,361",CA,192 Helecho Court,91362
2,3,Torrance,1,Condo/Townhome,33.8198,FOR SALE,-118.304,"$459,000","1,340",CA,1520 W 227th Street 7,90501
3,4,Saugus,0,Condo/Townhome,34.4659,FOR SALE,-118.533,"$434,995","1,146",CA,28343 Seco Canyon Road 101,91390
2,2,Diamond Bar,1,Condo/Townhome,34.0297,FOR SALE,-117.792,"$419,900","1,145",CA,24206 Sylvan Glen Road C,91765
2,2,Seal Beach,0,Condo/Townhome,33.7852,FOR SALE,-118.075,"$410,000","1,010",CA,12200 Montecito Road D123,90740
3,3,Canyon Country,0,Condo/Townhome,34.4053,FOR SALE,-118.454,"$395,000","1,419",CA,27007 Karns Court 2402,91387
2,2,Ventura,1,Condo/Townhome,34.283891,FOR SALE,-119.179022,"$389,000","1,330",CA,9540 Telegraph Road 3,93004
3,3,Rancho Mirage,0,Condo/Townhome,33.7938,FOR SALE,-116.434,"$365,000","2,380",CA,34910 Mission Hills Drive,92270
1,2,Inglewood,0,Condo/Townhome,33.97325,FOR SALE,-118.35888,"$365,000",856,CA,800 North EUCALYPTUS Avenue 204,90302
1,1,San Diego,0,Condo/Townhome,32.7159,FOR SALE,-117.151,"$359,900",795,CA,1480 Broadway 2319,92101
1,2,Santa Ana,1,Condo/Townhome,33.7567,FOR SALE,-117.842,"$349,900","1,101",CA,1344 Cabrillo Park Drive F,92701
2,2,Long Beach,0,Condo/Townhome,33.7866,FOR SALE,-118.192,"$299,000",799,CA,1566 Pine Avenue 106A,90813
1,1,San Diego,0,Condo/Townhome,32.9624,FOR SALE,-117.1,"$285,000",572,CA,10369 Azuaga St 159,92129
2,2,Oceanside,0,Condo/Townhome,33.2463,FOR SALE,-117.315,"$280,000",912,CA,194 Avenida Descanso C,92057
2,2,Palm Springs,0,Condo/Townhome,33.828705,FOR SALE,-116.540878,"$279,000","1,618",CA,411 Rio Vista,92262
2,2,Palm Desert,0,Condo/Townhome,33.753853,FOR SALE,-116.320404,"$262,000","1,294",CA,40481 Pebble Beach Circle 12-5,92211
3,4,Quartz Hill,0,Condo/Townhome,34.664344,FOR SALE,-118.212987,"$659,900","2,754",CA,4621 W Ave K12,93536
2,4,Moorpark,0,Condo/Townhome,34.29636,FOR SALE,-118.84673,"$439,900","1,455",CA,15110 Marquette St C,93021
2,2,Oceanside,1,Condo/Townhome,33.1609,FOR SALE,-117.266,"$719,000","1,899",CA,4744 Galicia Way,92056
2,2,Newport Beach,0,Condo/Townhome,33.625,FOR SALE,-117.933,"$703,000","1,392",CA,101 Scholz 235,92663
2,2,Burbank,0,Condo/Townhome,34.1762,FOR SALE,-118.302,"$699,000","1,380",CA,750 S San Fernando Boulevard 105,91502
2,3,San Diego,0,Condo/Townhome,32.7182,FOR SALE,-117.168,"$695,000","1,281",CA,1240 India St 702,92101
2,2,La Jolla,0,Condo/Townhome,32.84,FOR SALE,-117.276,"$689,000",938,CA,7509 Draper Ave 305,92037
2,3,San Diego,0,Condo/Townhome,32.8611,FOR SALE,-117.225,"$675,000","1,322",CA,4150 Porte De Palmas 11,92122
2,2,Rancho Santa Margarita,0,Condo/Townhome,33.6547,FOR SALE,-117.583,"$638,800","1,475",CA,17 Calle Katrina,92688
2,3,Carlsbad,1,Condo/Townhome,33.1146,FOR SALE,-117.232,"$625,000","1,406",CA,6468 Terraza Portico,92009
2,3,Orange,1,Condo/Townhome,33.8343,FOR SALE,-117.8,"$620,000","1,500",CA,5034 E Hunsford Drive C,92867
1,1,Irvine,1,Condo/Townhome,33.6771,FOR SALE,-117.849,"$619,500","1,426",CA,513 Rockefeller,92612
2,2,Culver City,0,Condo/Townhome,34.00308,FOR SALE,-118.39121,"$619,000",942,CA,4923 MAYTIME Lane,90230
2,2,Costa Mesa,1,Condo/Townhome,33.6501,FOR SALE,-117.913,"$615,000","1,294",CA,335 Sydney Lane 335,92627
3,3,Lawndale,0,Condo/Townhome,33.8891,FOR SALE,-118.348,"$599,900","1,962",CA,15616 Freeman Avenue A,90260
3,4,Ventura,0,Condo/Townhome,34.287805,FOR SALE,-119.151163,"$589,000","2,418",CA,11180 Darling Road,93004
2,3,Rancho Santa Margarita,1,Condo/Townhome,33.6168,FOR SALE,-117.612,"$579,900","1,397",CA,54 Rabano,92688
2,3,Simi Valley,1,Condo/Townhome,34.2515,FOR SALE,-118.815,"$565,000","1,504",CA,717 Congressional Road,93065
2,3,Moorpark,1,Condo/Townhome,34.2764,FOR SALE,-118.879,"$564,900","1,792",CA,4796 Dartmoor Court,93021
2,3,Orange,1,Condo/Townhome,33.8389,FOR SALE,-117.855,"$560,000","1,506",CA,386 W Mountain Holly Avenue,92865
2,3,Orange,1,Condo/Townhome,33.8389,FOR SALE,-117.855,"$560,000","1,506",CA,386 W Mountain Holly Avenue,92865
2,3,Woodland Hills,1,Condo/Townhome,34.1834,FOR SALE,-118.612,"$559,900","1,568",CA,22271 Erwin Street,91367
3,5,Palmdale,0,Condo/Townhome,34.57443,FOR SALE,-118.00584,"$365,000","3,335",CA,38119 Aidea St,93552
2,4,Los Banos,0,Condo/Townhome,37.06938,FOR SALE,-120.85023,"$315,000","1,876",CA,203 Lime Ave,93635
2,2,Laguna Woods,0,Condo/Townhome,33.61794,FOR SALE,-117.71733,"$250,000","1,009",CA,2271-C Via Puerta,92637
2,1,Mariposa,0,Condo/Townhome,37.48613,FOR SALE,-119.83302,"$225,000","1,008",CA,5521 Clouds Rest,95338
1,2,Marysville,1,Condo/Townhome,39.160323,FOR SALE,-121.565832,"$125,000","1,152",CA,1181 E 22nd St,95901
2,3,Santa Monica,1,Condo/Townhome,34.02402,FOR SALE,-118.509,"$5,950,000","2,694",CA,603 Ocean Ave Unit 4A,90402
3,5,San Francisco,1,Condo/Townhome,37.77998,FOR SALE,-122.49368,"$1,398,000","2,397",CA,499 33rd Avenue Unit 305,94121
1,1,Santa Monica,1,Condo/Townhome,33.99826,FOR SALE,-118.4816,"$1,249,000","1,081",CA,2960 Neilson Way Unit 204,90405
3,4,Los Angeles,0,Condo/Townhome,34.04059,FOR SALE,-118.44579,"$1,195,000","2,196",CA,1930 Purdue Ave Unit 7,90025
2,2,Los Angeles,0,Condo/Townhome,34.04749,FOR SALE,-118.24903,"$1,165,000","1,268",CA,460 S Spring St Unit 102,90013
1,1,San Francisco,0,Condo/Townhome,37.78095,FOR SALE,-122.39155,"$1,095,000","1,378",CA,650 2nd Street Unit 302,94107
2,3,Irvine,1,Condo/Townhome,33.64621,FOR SALE,-117.775,"$998,888","2,073",CA,103 Canopy,92603
3,2,Los Angeles,0,Condo/Townhome,34.05172,FOR SALE,-118.4308,"$949,000","1,863",CA,1815 Manning Ave Unit 202,90025
1,4,San Jose,1,Condo/Townhome,37.38107,FOR SALE,-121.87051,"$914,888","1,452",CA,1240 Whitfield Ct,95131
2,3,Corte Madera,0,Condo/Townhome,37.91864,FOR SALE,-122.50373,"$900,000","1,508",CA,17 Mariner Green Drive,94925
2,2,Los Angeles,1,Condo/Townhome,34.0829,FOR SALE,-118.33185,"$799,000","1,848",CA,637 Wilcox Ave Unit 2D,90004
2,2,Los Angeles,1,Condo/Townhome,34.07188,FOR SALE,-118.31211,"$795,000","1,543",CA,140 S Gramercy Pl Unit 7,90004
2,2,San Jose,1,Condo/Townhome,37.25822,FOR SALE,-121.84288,"$699,999","1,294",CA,5358 Colony Field Dr,95123
2,3,Lake Forest,1,Condo/Townhome,33.6417,FOR SALE,-117.672,"$539,900","1,351",CA,26368 Spring Creek Circle 52,92630
3,3,Tarzana,0,Condo/Townhome,34.1796,FOR SALE,-118.53,"$520,000","1,745",CA,6020 Etiwanda Avenue 120,91356
2,3,Clio,1,Condo/Townhome,39.7181,FOR SALE,-120.537,"$519,000","2,350",CA,52 Hawk Ridge,96103
2,2,San Diego,0,Condo/Townhome,32.7214,FOR SALE,-117.164,"$519,000","1,058",CA,1501 Front St 216,92101
2,3,Downey,0,Condo/Townhome,33.93,FOR SALE,-118.113,"$515,000","1,745",CA,9557 Firestone Boulevard A,90241
2,2,Pasadena,0,Condo/Townhome,34.1474,FOR SALE,-118.126,"$515,000",913,CA,77 N Michigan Avenue 11,91106
2,3,Downey,1,Condo/Townhome,33.9369,FOR SALE,-118.148,"$499,000","1,712",CA,7604 Stewart And Gray Road A,90241
2,3,Garden Grove,0,Condo/Townhome,33.7882,FOR SALE,-117.912,"$499,000","1,343",CA,12664 Chapman Avenue 1404,92840
2,2,Glendora,0,Condo/Townhome,34.1273,FOR SALE,-117.819,"$498,800","1,358",CA,2431 E Curtis Court,91741
3,3,Chula Vista,0,Condo/Townhome,32.6201,FOR SALE,-116.958,"$498,000","1,874",CA,1731 Rolling Water Dr 3,91915
2,2,Simi Valley,0,Condo/Townhome,34.2542,FOR SALE,-118.809441,"$485,000","1,366",CA,485 Country Club Drive 224,93065
2,2,Rancho Santa Margarita,0,Condo/Townhome,33.6198,FOR SALE,-117.62,"$484,999","1,083",CA,3 Alondra,92688
2,2,Glendora,0,Condo/Townhome,34.135,FOR SALE,-117.839,"$484,000","1,174",CA,126 Oak Forest Circle,91741
2,2,Anaheim Hills,0,Condo/Townhome,33.8571,FOR SALE,-117.73,"$479,900",998,CA,944 S Prescott Place,92808
2,2,Glendale,1,Condo/Townhome,34.153759,FOR SALE,-118.267715,"$479,000",970,CA,620 W Doran Street 7,91203
2,3,Van Nuys,1,Condo/Townhome,34.1892,FOR SALE,-118.458,"$469,900","1,620",CA,14903 Hamlin Street,91411
2,3,Lakewood,1,Condo/Townhome,33.841,FOR SALE,-118.079,"$449,900","1,210",CA,20809 Seine Avenue 4,90715
1,2,Hayward,0,Condo/Townhome,37.6269,FOR SALE,-122.095,"$449,000",936,CA,2431 Oliver Dr,94545
3,3,Santa Ana,0,Condo/Townhome,33.7484,FOR SALE,-117.92,"$447,200","1,495",CA,1416 N. Harbor Blvd 2,92703
3,3,Santa Ana,0,Condo/Townhome,33.7484,FOR SALE,-117.92,"$447,200","1,495",CA,1446 N. Harbor Blvd 4,92703
3,3,South San Francisco,0,Condo/Townhome,37.6659851,FOR SALE,-122.4455719,"$998,000","1,580",CA,1279 Mission Road,94080
2,3,San Jose,0,Condo/Townhome,37.28644,FOR SALE,-121.84237,"$570,000","1,094",CA,291 Kenbrook CIR,95111
3,3,Coronado,0,Condo/Townhome,32.6806,FOR SALE,-117.179,"$6,500,000","2,034",CA,1500 Orange Avenue Cottage 9,92118
1,1,Coronado,0,Condo/Townhome,32.6806,FOR SALE,-117.179,"$4,500,000","1,085",CA,1500 Orange Avenue Cottage 10,92118
4,4,Venice,1,Condo/Townhome,33.99075,FOR SALE,-118.46852,"$3,295,000","3,110",CA,1219 CABRILLO Avenue,90291
3,3,Hermosa Beach,1,Condo/Townhome,33.8625,FOR SALE,-118.396,"$2,199,000","2,250",CA,1102 Cypress,90266
3,3,Santa Monica,0,Condo/Townhome,34.0273,FOR SALE,-118.496,"$1,995,000","2,034",CA,931 10th Street B,90403
2,3,Beverly Hills,1,Condo/Townhome,34.06257,FOR SALE,-118.39827,"$1,959,000","2,285",CA,261 South REEVES Drive 101,90212
2,2,Los Angeles,1,Condo/Townhome,34.0609,FOR SALE,-118.437,"$1,649,500","1,723",CA,10727 Wilshire Boulevard 606,90024
3,4,Newport Coast,1,Condo/Townhome,33.6074,FOR SALE,-117.809,"$1,565,000","2,400",CA,54 Talmont,92657
3,3,Manhattan Beach,0,Condo/Townhome,33.88799,FOR SALE,-118.38834,"$1,349,000","1,670",CA,1440 12TH Street D,90266
3,3,Hermosa Beach,0,Condo/Townhome,33.8563,FOR SALE,-118.389,"$1,299,000","1,814",CA,937 1st Street A,90254
3,3,Costa Mesa,1,Condo/Townhome,33.6509,FOR SALE,-117.919,"$1,257,000","2,362",CA,2105 Two Harbors Circle,92627
3,3,Newport Beach,0,Condo/Townhome,33.6231,FOR SALE,-117.942,"$1,250,000","1,814",CA,5025 River Avenue 2,92663
2,3,Redondo Beach,1,Condo/Townhome,33.8302,FOR SALE,-118.388,"$1,249,000","2,200",CA,718 S Catalina Avenue 4,90277
3,4,Redondo Beach,0,Condo/Townhome,33.8707,FOR SALE,-118.37,"$1,185,000","1,973",CA,2310 Carnegie Lane A,90278
2,2,Marina del Rey,0,Condo/Townhome,33.989,FOR SALE,-118.439,"$939,000","1,370",CA,4211 Redwood Avenue 409,90066
2,2,Los Angeles (City),0,Condo/Townhome,34.057485502,FOR SALE,-118.410662935,"$939,000","1,066",CA,2160 Century Park East 609,90067
2,2,Rancho Palos Verdes,1,Condo/Townhome,33.7625,FOR SALE,-118.415,"$925,000","1,767",CA,1005 Estrella Del Mar,90275
3,3,Danville,0,Condo/Townhome,37.7851,FOR SALE,-121.968,"$920,000","1,971",CA,2213 Shoshone Cir,94526
1,1,Simi Valley,0,Condo/Townhome,34.287423,FOR SALE,-118.706051,"$245,000",531,CA,4557 Alamo Street A,93063
2,2,Ontario,0,Condo/Townhome,34.0557,FOR SALE,-117.673,"$243,691",845,CA,1309 W Mission Boulevard U-27,91762
1,2,Ventura,0,Condo/Townhome,34.262393,FOR SALE,-119.217864,"$235,000",873,CA,1300 Saratoga Avenue 1207,93003
2,3,Palm Desert,0,Condo/Townhome,33.736656,FOR SALE,-116.372203,"$205,000","1,122",CA,265 Via Rengo,92260
2,2,Palm Springs,0,Condo/Townhome,33.79623,FOR SALE,-116.52008,"$169,000","1,200",CA,2210 South CALLE PALO FIERRO 32,92264
1,1,Chico,0,Condo/Townhome,39.7349,FOR SALE,-121.833,"$154,000",702,CA,555 Vallombrosa Avenue 88,95926
2,2,Apple Valley,0,Condo/Townhome,34.463,FOR SALE,-117.245,"$99,900",848,CA,19109 Palo Verde Drive,92308
2,3,Santa Clara,1,Condo/Townhome,37.35592,FOR SALE,-121.95173,"$1,348,888","1,661",CA,1278 Warburton Avenue,95050
2,3,Santa Clara,1,Condo/Townhome,37.35583,FOR SALE,-121.95195,"$1,298,888","1,661",CA,1298 Warburton Avenue,95050
2,3,Irvine,1,Condo/Townhome,33.68946,FOR SALE,-117.7376,"$1,098,000","2,269",CA,149 Follyhatch,92618
4,3,Arcadia,0,Condo/Townhome,34.13317,FOR SALE,-118.03014,"$998,000","2,408",CA,"28 Fano St., #D",91006
3,4,Artesia,0,Condo/Townhome,33.86312,FOR SALE,-118.07396,"$890,000","1,926",CA,12115 186th,90701
3,4,Lodi,0,Condo/Townhome,38.13253,FOR SALE,-121.30702,"$499,000","2,514",CA,2565 Paradise Dr,95242
2,2,Camarillo,1,Condo/Townhome,34.20058,FOR SALE,-118.98304,"$464,900","1,465",CA,6280 Paseo Encantada,93012
2,3,Turlock,0,Condo/Townhome,37.5298,FOR SALE,-120.84597,"$399,000","1,863",CA,4024 St George Pl,95382
2,4,Patterson,1,Condo/Townhome,37.46807,FOR SALE,-121.14574,"$374,990","2,238",CA,1139 Kestrel Dr,95363
2,3,Sacramento,0,Condo/Townhome,38.68252,FOR SALE,-121.50364,"$359,000","1,492",CA,1892 Dawnelle Way,95835
2,3,Lancaster,0,Condo/Townhome,34.70002,FOR SALE,-118.184718,"$350,000","1,770",CA,44953 Shad St,93536
1,1,Culver City,0,Condo/Townhome,33.98243,FOR SALE,-118.38987,"$456,000",863,CA,5875 DOVERWOOD Drive 108,90230
2,2,Santa Ana,0,Condo/Townhome,33.7009,FOR SALE,-117.905,"$455,000",907,CA,3500 S Greenville Street G16,92704
2,3,Santa Ana,0,Condo/Townhome,33.7085,FOR SALE,-117.904,"$449,000","1,284",CA,2910 S Greenville Street I,92704
2,2,Lake Forest,0,Condo/Townhome,33.659,FOR SALE,-117.673,"$429,900","1,000",CA,26342 Forest Ridge 3C,92630
2,2,Long Beach,0,Condo/Townhome,33.8392,FOR SALE,-118.182,"$425,000","1,328",CA,4505 California Avenue 504,90807
2,2,Long Beach,0,Condo/Townhome,33.8392,FOR SALE,-118.182,"$425,000","1,328",CA,4505 California Avenue 504,90807
2,2,Bellflower,1,Condo/Townhome,33.8789,FOR SALE,-118.136,"$425,000","1,251",CA,9245 Park Street,90706
2,2,Camarillo,0,Condo/Townhome,34.211344,FOR SALE,-119.025979,"$399,000","1,142",CA,290 Riverdale Court 1113,93012
3,2,Montebello,0,Condo/Townhome,34.008,FOR SALE,-118.108,"$395,888","1,249",CA,204 S Montebello Boulevard,90640
3,3,Laguna Woods,0,Condo/Townhome,33.6139,FOR SALE,-117.723,"$395,000","1,663",CA,2390 Via Mariposa W 3E,92637
1,2,Santa Monica,0,Condo/Townhome,34.03322,FOR SALE,-118.47022,"$385,000",913,CA,1517 HARVARD Street 8,90404
2,2,Chula Vista,0,Condo/Townhome,32.6691,FOR SALE,-116.982,"$380,000","1,061",CA,280 Salinas Dr. 171,91914
2,3,Bell Gardens,0,Condo/Townhome,33.9751,FOR SALE,-118.156,"$375,000","1,517",CA,6021 Gage Avenue 1,90201
2,3,Palm Springs,0,Condo/Townhome,33.83374,FOR SALE,-116.52475,"$369,000","1,387",CA,795 North SEVILLE Circle,92262
2,3,Canoga Park,0,Condo/Townhome,34.2111,FOR SALE,-118.605,"$369,000","1,246",CA,7800 Topanga Canyon Boulevard 206,91304
1,2,Lake Forest,0,Condo/Townhome,33.6435,FOR SALE,-117.679,"$350,000",829,CA,21991 Rimhurst Drive G,92630
1,2,Bonsall,0,Condo/Townhome,33.293,FOR SALE,-117.211,"$349,000",900,CA,31916 Del Cielo Este 25,92003
2,3,Lemon Grove,0,Condo/Townhome,32.7445,FOR SALE,-117.026,"$330,000","1,088",CA,3525 Grove St 116,91945
2,2,Rancho Cucamonga,0,Condo/Townhome,34.1006,FOR SALE,-117.584,"$315,000","1,010",CA,8429 Spring Desert Pl. #H,91730
2,2,Azusa,0,Condo/Townhome,34.1292,FOR SALE,-117.898,"$315,000",921,CA,428 N Cerritos Avenue,91702
2,2,Irvine,1,Condo/Townhome,33.625,FOR SALE,-117.821,"$803,500","1,116",CA,65 Clouds,92603
2,3,Irvine,1,Condo/Townhome,33.7331,FOR SALE,-117.776,"$789,800","1,625",CA,107 Waterman 150,92602
2,3,Irvine,1,Condo/Townhome,33.6973,FOR SALE,-117.712,"$788,888","1,733",CA,162 Desert Bloom,92618
2,2,Los Angeles,1,Condo/Townhome,34.0951,FOR SALE,-118.345,"$770,000","1,490",CA,1319 N Detroit Street PH2,90046
2,4,Carlsbad,1,Condo/Townhome,33.1128,FOR SALE,-117.279,"$749,000","1,959",CA,1626 Fairlead Ave,92011
3,3,Signal Hill,0,Condo/Townhome,33.7992,FOR SALE,-118.16,"$700,000","2,070",CA,2353 Ohio Avenue,90755
3,3,Signal Hill,0,Condo/Townhome,33.7992,FOR SALE,-118.16,"$700,000","2,070",CA,2353 Ohio Avenue,90755
2,2,San Diego,1,Condo/Townhome,32.712,FOR SALE,-117.166,"$659,995","1,225",CA,301 W G 123,92101
3,3,Palm Springs,0,Condo/Townhome,33.765899,FOR SALE,-116.528083,"$659,000","2,662",CA,3608 East Bogert Trail B,92264
1,2,Los Angeles (City),0,Condo/Townhome,34.10863,FOR SALE,-118.29132,"$649,500","1,172",CA,2030 North VERMONT Avenue 15,90027
2,2,San Diego,1,Condo/Townhome,32.7109,FOR SALE,-117.163,"$640,000","1,290",CA,101 Market St 107,92101
2,3,Tustin,1,Condo/Townhome,33.751,FOR SALE,-117.814,"$639,000","1,508",CA,14632 Holt Avenue,92780
1,2,Fremont,1,Condo/Townhome,37.5686,FOR SALE,-121.965,"$624,888","1,120",CA,38737 Aurora Ter 19,94536
2,2,Newport Beach,0,Condo/Townhome,33.6246,FOR SALE,-117.933,"$599,999","1,120",CA,100 Scholz 104,92663
3,3,Aliso Viejo,0,Condo/Townhome,33.5744,FOR SALE,-117.723,"$599,000","1,367",CA,43 Wisteria Place,92656
1,1,Walnut Creek,0,Condo/Townhome,37.9082,FOR SALE,-122.051,"$599,000",739,CA,1281 Homestead Ave 2B,94598
2,2,Signal Hill,0,Condo/Townhome,33.7933,FOR SALE,-118.161,"$594,900","1,772",CA,1995 Molino Avenue 203,90755
2,2,Irvine,1,Condo/Townhome,33.6958,FOR SALE,-117.79,"$585,800","1,150",CA,18 Goldenbush,92604
2,2,Lake Forest,1,Condo/Townhome,33.6421,FOR SALE,-117.671,"$577,000","1,556",CA,22073 Summit Hill Drive 22,92630
2,2,Mission Viejo,0,Condo/Townhome,33.6611,FOR SALE,-117.633,"$575,000","1,367",CA,161 Winterberry,92692
2,2,Irvine,0,Condo/Townhome,33.6285,FOR SALE,-117.831,"$819,000","1,643",CA,223 Lonetree,92603
2,3,Huntington Beach,0,Condo/Townhome,33.6622,FOR SALE,-117.976,"$609,900","1,287",CA,8855 Sutter Circle 516D,92646
2,2,Laguna Beach,1,Condo/Townhome,33.5954,FOR SALE,-117.751,"$595,000","1,263",CA,402 San Nicholas Court,92651
4,4,Santee,0,Condo/Townhome,32.8362,FOR SALE,-116.976,"$475,000","1,733",CA,10165 Brightwood Ln 5,92071
1,2,Laguna Niguel,1,Condo/Townhome,33.5462,FOR SALE,-117.684,"$450,000","1,232",CA,25604 Paseo La 3,92677
2,2,Laguna Woods,0,Condo/Townhome,33.6101,FOR SALE,-117.742,"$449,000","1,200",CA,5489 Paseo Del Lago W P,92637
2,3,Pittsburg,1,Condo/Townhome,38.0386,FOR SALE,-121.888,"$419,000","1,583",CA,307 Heron Dr,94565
2,2,Sherman Oaks,0,Condo/Townhome,34.1536,FOR SALE,-118.437,"$409,900","1,077",CA,4521 Colbath Avenue 105,91423
1,1,Irvine,0,Condo/Townhome,33.6711,FOR SALE,-117.775,"$400,000",814,CA,287 Tangelo 333,92618
2,3,Hercules,0,Condo/Townhome,37.995187,FOR SALE,-122.244791,"$399,999","1,274",CA,163 Seaway Ct,94547
1,2,Truckee,1,Condo/Townhome,39.3511,FOR SALE,-120.229,"$399,000","1,054",CA,12575 Northwoods Boulevard 3,96161
2,2,Saugus,0,Condo/Townhome,34.4441,FOR SALE,-118.475,"$389,000","1,404",CA,28364 Mirabelle Lane 476,91350
2,2,Saugus,0,Condo/Townhome,34.4441,FOR SALE,-118.475,"$389,000","1,404",CA,28364 Mirabelle Lane 476,91350
2,2,Anaheim,0,Condo/Townhome,33.8125,FOR SALE,-118.011,"$385,000","1,026",CA,3550 W Sweetbay Court W F,92804
2,2,Chula Vista,0,Condo/Townhome,32.6304,FOR SALE,-117.046,"$330,000","1,006",CA,824 Tamayo Dr 2,91910
2,2,Fallbrook,0,Condo/Townhome,33.3605,FOR SALE,-117.164,"$300,000","1,308",CA,1764 Pala Lake Dr,92028
1,1,Mammoth Lakes,0,Condo/Townhome,37.6358761,FOR SALE,-118.9875778,"$299,000",620,CA,3253 Meridian Blvd 23,93546
3,3,Cathedral City,0,Condo/Townhome,33.79205,FOR SALE,-116.46642,"$258,500","1,850",CA,35200 CATHEDRAL CANYON Drive 118,92234
1,1,Palm Springs,1,Condo/Townhome,33.84424,FOR SALE,-116.54438,"$155,000",750,CA,1555 North CHAPARRAL Road 301,92262
3,3,San Jose,0,Condo/Townhome,37.28376,FOR SALE,-121.85609,"$998,000","1,813",CA,3099 Lina Ln Unit 1,95136
2,2,Milpitas,1,Condo/Townhome,37.40998,FOR SALE,-121.89845,"$899,999","1,300",CA,1501 Bond St,95035
3,3,San Diego,0,Condo/Townhome,32.78756,FOR SALE,-117.2384,"$859,000","1,608",CA,3748 Promontory St,92109
2,3,San Gabriel,0,Condo/Townhome,34.12711,FOR SALE,-118.06791,"$780,000","1,506",CA,9167 Arcadia Avenue,91775
2,2,Campbell,0,Condo/Townhome,37.26566,FOR SALE,-121.94757,"$685,000",992,CA,87 Redding Rd,95008
2,2,Santa Clara,0,Condo/Townhome,37.32592,FOR SALE,-121.97147,"$678,910","1,137",CA,121 Buckingham Dr 56,95051
2,3,Anaheim,1,Condo/Townhome,33.817867,FOR SALE,-117.997267,"$650,000","1,531",CA,914 S Belterra Way,92804
3,3,Tustin,1,Condo/Townhome,33.704755,FOR SALE,-117.803831,"$635,000","1,589",CA,5 Aviator Ln,92782
3,3,Oxnard,0,Condo/Townhome,34.18933,FOR SALE,-119.23203,"$620,000","1,950",CA,1269 Bayside Lane,93035
2,2,Fullerton,1,Condo/Townhome,33.89984,FOR SALE,-117.96646,"$584,000","1,444",CA,2314 Applewood Cr. #63,92833
3,5,Carson,0,Condo/Townhome,33.82831,FOR SALE,-118.27345,"$575,000","1,890",CA,227 E 220th St,90745
2,3,Yorba Linda,1,Condo/Townhome,33.877277,FOR SALE,-117.763236,"$545,000","1,531",CA,5823 Via Sonora #15,92887
2,2,San Diego,0,Condo/Townhome,32.7109,FOR SALE,-117.1542,"$540,000",910,CA,525 11th Ave. 1105,92101
2,2,Ladera Ranch,1,Condo/Townhome,33.547531,FOR SALE,-117.647647,"$535,000","1,578",CA,42 Palladium Lane #81,92694
2,2,Brea,1,Condo/Townhome,33.93101,FOR SALE,-117.89491,"$500,000","1,302",CA,749 Sather Court 46,92821
1,2,Petaluma,0,Condo/Townhome,38.24288,FOR SALE,-122.63765,"$495,000",952,CA,27 Natalie Circle,94952
2,2,San Diego,0,Condo/Townhome,33.00842,FOR SALE,-117.06805,"$489,000","1,096",CA,12242 Paseo Lucido D,92128
2,1,Los Angeles,0,Condo/Townhome,34.10293,FOR SALE,-118.34746,"$480,000",912,CA,7250 Franklin Ave Unit 508,90046
3,4,Chula Vista,1,Condo/Townhome,32.614627041,FOR SALE,-116.989843163,"$474,000","1,719",CA,1427 Santa Victoria Rd 4,91913
2,2,Oak Park,0,Condo/Townhome,34.1856,FOR SALE,-118.765,"$449,999","1,104",CA,5805 Oak Bend Lane 407,91377
3,2,Valencia,0,Condo/Townhome,34.4287,FOR SALE,-118.549,"$449,000","1,106",CA,23632 Big Horn Walk 42,91354
2,2,Rancho Santa Margarita,0,Condo/Townhome,33.6511,FOR SALE,-117.583,"$449,000",922,CA,5 Via Acuatica,92688
1,1,Dana Point,0,Condo/Townhome,33.4885,FOR SALE,-117.713,"$447,000",800,CA,74 Corniche Drive A,92629
2,3,Palm Springs,0,Condo/Townhome,33.78662,FOR SALE,-116.54176,"$435,000","1,542",CA,425 East AVENIDA GRANADA,92264
3,2,Tujunga,0,Condo/Townhome,34.2534,FOR SALE,-118.288,"$435,000","1,409",CA,10141 Samoa Avenue 5,91042
2,2,San Dimas,0,Condo/Townhome,34.1189,FOR SALE,-117.799,"$429,000","1,198",CA,926 Malakoff Road,91773
3,2,Orange,0,Condo/Townhome,33.7907,FOR SALE,-117.789,"$420,000",984,CA,285 N Singingwood Street 7,92869
1,1,Tustin,0,Condo/Townhome,33.7407,FOR SALE,-117.775,"$415,000",791,CA,2960 Champion Way 1311,92782
2,2,Laguna Woods,0,Condo/Townhome,33.6126,FOR SALE,-117.733,"$414,500","1,009",CA,3036 Via Vista A,92637
2,2,Anaheim,0,Condo/Townhome,33.8142,FOR SALE,-118.011,"$399,900","1,026",CA,3507 W Greentree Circle A,92804
2,2,Placentia,0,Condo/Townhome,33.8691,FOR SALE,-117.819,"$399,000",852,CA,121 S Lakeview Avenue 121F,92870
2,3,Moorpark,0,Condo/Townhome,34.294399,FOR SALE,-118.846298,"$398,000","1,487",CA,6453 Marquette Street E,93021
2,2,San Pedro,0,Condo/Townhome,33.7544,FOR SALE,-118.305,"$395,000",961,CA,1275 W Capitol Drive 118,90732
1,1,San Diego,0,Condo/Townhome,32.7128,FOR SALE,-117.156,"$395,000",650,CA,908 G Street 13,92101
2,2,Placentia,0,Condo/Townhome,33.871,FOR SALE,-117.832,"$390,000",934,CA,1530 E Spruce Street G,92870
1,1,Torrance,0,Condo/Townhome,33.8205,FOR SALE,-118.342,"$370,000",725,CA,22707 Maple Avenue,90505
2,2,Chula Vista,1,Condo/Townhome,32.6559,FOR SALE,-116.974,"$360,000",937,CA,715 Eastshore Terrace 41,91913
2,2,Ontario,0,Condo/Townhome,34.0135,FOR SALE,-117.565,"$348,000","1,314",CA,3250 S Edenglen Avenue 7,91761
2,3,San Francisco,1,Condo/Townhome,37.752369,FOR SALE,-122.459038,"$1,195,000","1,731",CA,660 Clarendon Avenue Unit: 18,94131
2,3,Irvine,1,Condo/Townhome,33.6942,FOR SALE,-117.815,"$1,010,000","2,690",CA,63 Juneberry,92606
2,3,Irvine,1,Condo/Townhome,33.6942,FOR SALE,-117.815,"$1,010,000","2,690",CA,63 Juneberry,92606
2,2,Playa Vista,0,Condo/Townhome,33.97203,FOR SALE,-118.42907,"$999,000","1,659",CA,5625 Crescent Park West 207,90094
2,1,Los Angeles (City),0,Condo/Townhome,34.1014,FOR SALE,-118.32545,"$997,000","1,320",CA,6250 Hollywood 11b,90028
3,4,Newark,1,Condo/Townhome,37.5359844,FOR SALE,-122.0154764,"$989,000","2,026",CA,5509 Azalea WAY,94560
3,3,Irvine,0,Condo/Townhome,33.6772,FOR SALE,-117.848,"$959,990","1,914",CA,204 Tribeca,92612
2,2,West Hollywood,0,Condo/Townhome,34.0873,FOR SALE,-118.384,"$925,000","1,473",CA,CYNTHIA Street,90069
3,4,Rancho Mission Viejo,1,Condo/Townhome,33.5584,FOR SALE,-117.633,"$799,900","2,254",CA,72 Promesa Avenue,92694
1,1,Sunnyvale,0,Condo/Townhome,37.392582,FOR SALE,-122.013481,"$799,876",870,CA,601 Arcadia Terrace Unit: 103,94085
2,2,San Diego,0,Condo/Townhome,32.7092,FOR SALE,-117.238,"$779,900","1,265",CA,2915 Lawrence 6,92106
2,3,Irvine,0,Condo/Townhome,33.6591,FOR SALE,-117.831,"$759,000","1,507",CA,7 Verde,92612
2,3,Pasadena,1,Condo/Townhome,34.1641,FOR SALE,-118.09,"$749,000","1,660",CA,2880 Ashley Drive,91107
2,3,Irvine,0,Condo/Townhome,33.6657,FOR SALE,-117.851,"$748,000","1,456",CA,3259 Watermarke Place,92612
2,3,San Diego,1,Condo/Townhome,32.7818,FOR SALE,-117.149,"$739,900","1,585",CA,2613 Aperture Cir,92108
2,2,San Juan Capistrano,1,Condo/Townhome,33.4908,FOR SALE,-117.654,"$725,000","1,390",CA,27273 Via Capri,92675
4,4,Cerritos,0,Condo/Townhome,33.875,FOR SALE,-118.06,"$695,000","1,849",CA,11808 E Solana Place,90703
3,3,San Diego,1,Condo/Townhome,32.797,FOR SALE,-117.192,"$685,000","1,422",CA,2985 Pacific Palm Way,92117
2,2,El Segundo,0,Condo/Townhome,33.9263,FOR SALE,-118.415,"$679,900","1,256",CA,123 E Oak Avenue 108,90245
2,3,Encino,1,Condo/Townhome,34.1677,FOR SALE,-118.519,"$675,999","2,075",CA,5335 White Oak Ave E,91316
2,3,San Clemente,1,Condo/Townhome,33.4292,FOR SALE,-117.628,"$749,000","1,398",CA,1412 Buena Vista 7,92672
2,3,Tustin,1,Condo/Townhome,33.6958,FOR SALE,-117.81,"$739,990","1,764",CA,3214 Carrotwood Drive,92782
2,3,San Diego,1,Condo/Townhome,32.7818,FOR SALE,-117.149,"$699,000","1,470",CA,2400 Aperture Cir,92108
2,2,San Diego,1,Condo/Townhome,32.787,FOR SALE,-117.13,"$599,000","1,204",CA,2776 Bellezza Dr,92108
1,3,Irvine,1,Condo/Townhome,33.6698,FOR SALE,-117.82,"$549,000","1,260",CA,16 Fairside 31,92614
2,2,Culver City,0,Condo/Townhome,34.0055,FOR SALE,-118.391,"$548,000",916,CA,2103 Summertime Lane,90230
2,3,Lake Forest,1,Condo/Townhome,33.6558,FOR SALE,-117.67,"$540,000","1,358",CA,21101 Highlander,92630
2,3,Lake Forest,1,Condo/Townhome,33.6558,FOR SALE,-117.67,"$540,000","1,358",CA,21101 Highlander,92630
2,2,Walnut Creek,0,Condo/Townhome,37.9175,FOR SALE,-122.058,"$518,500",992,CA,1308 Walden Rd 28,94597
2,2,San Diego,0,Condo/Townhome,32.7455,FOR SALE,-117.171,"$508,000","1,025",CA,836 W Pennsylvania Ave 205,92103
2,3,Lake Arrowhead,0,Condo/Townhome,34.2584,FOR SALE,-117.197,"$419,000","1,306",CA,27783 Peninsula Dr Unit 406 406,92352
2,2,Chino Hills,0,Condo/Townhome,34.0163,FOR SALE,-117.748,"$389,000",954,CA,13104 Glen Court 49,91709
2,2,Chino Hills,0,Condo/Townhome,34.0163,FOR SALE,-117.748,"$389,000",954,CA,13104 Glen Court 49,91709
1,2,San Pedro,0,Condo/Townhome,33.7222,FOR SALE,-118.294,"$375,000",930,CA,741 W 24th Street 5,90731
1,2,San Pedro,0,Condo/Townhome,33.7222,FOR SALE,-118.294,"$375,000",930,CA,741 W 24th Street 5,90731
2,3,Fontana,1,Condo/Townhome,34.1241,FOR SALE,-117.455,"$369,900","1,665",CA,16001 Chase Road 88,92336
2,3,La Quinta,0,Condo/Townhome,33.653835,FOR SALE,-116.264755,"$369,000","1,627",CA,54338 Oak Tree A121,92253
1,1,Huntington Beach,0,Condo/Townhome,33.7215,FOR SALE,-118.046,"$275,000",843,CA,16512 Blackbeard Lane 207,92649
2,2,Graeagle,0,Condo/Townhome,39.7646,FOR SALE,-120.611,"$225,500","1,314",CA,61 Graeagle Meadows Road,96103
2,4,Wilmington,2,Condo/Townhome,33.788903,FOR SALE,-118.256927,"$897,000","3,071",CA,1266 Cary Avenue,90744
2,3,Huntington Beach,0,Condo/Townhome,33.7292,FOR SALE,-118.052,"$350,000","1,218",CA,16053 Warmington Lane 73,92649
2,3,Huntington Beach,0,Condo/Townhome,33.7292,FOR SALE,-118.052,"$350,000","1,218",CA,16053 Warmington Lane 73,92649
2,2,Long Beach,0,Condo/Townhome,33.8214,FOR SALE,-118.187,"$350,000",794,CA,3565 Linden Avenue 258,90807
1,2,San Diego,0,Condo/Townhome,32.7578,FOR SALE,-117.117,"$349,900",767,CA,3532 Meade 31,92116
2,3,Pomona,0,Condo/Townhome,34.025,FOR SALE,-117.765,"$349,000","1,158",CA,55 Town And Country Road,91766
2,2,San Diego,0,Condo/Townhome,32.7491,FOR SALE,-117.113,"$340,000",828,CA,3870 37th St 1,92105
2,2,Palm Springs,0,Condo/Townhome,33.84145,FOR SALE,-116.52757,"$310,000","1,050",CA,1712 East CHIA Road,92262
1,1,Rancho Santa Margarita,0,Condo/Townhome,33.6182,FOR SALE,-117.613,"$305,000",608,CA,32 Baya,92688
2,2,Panorama City,1,Condo/Townhome,34.2375,FOR SALE,-118.45,"$299,900",918,CA,9210 Van Nuys Boulevard 6,91402
2,2,La Quinta,0,Condo/Townhome,33.64933,FOR SALE,-116.268227,"$295,000","1,330",CA,55066 Shoal Creek,92253
2,2,San Diego,0,Condo/Townhome,32.7757,FOR SALE,-117.052,"$279,000","1,139",CA,6811 Alvarado 12,92120
2,2,Alpine,0,Condo/Townhome,32.8351,FOR SALE,-116.768,"$272,000",960,CA,2157 Arnold Way 914,91901
1,1,Truckee,0,Condo/Townhome,39.3542,FOR SALE,-120.26,"$239,500",644,CA,11557 Snowpeak Way 639,96161
2,2,Palm Desert,0,Condo/Townhome,33.757839,FOR SALE,-116.31337,"$209,000","1,177",CA,77419 Sawgrass Circle,92211
1,1,Murrieta,0,Condo/Townhome,33.5572,FOR SALE,-117.158,"$174,000",762,CA,28661 Via Las Flores 307,92563
1,2,Fresno,1,Condo/Townhome,36.793106,FOR SALE,-119.718971,"$123,000","1,295",CA,5188 E Ashlan Unit: 110,93727
1,1,Palm Springs,0,Condo/Townhome,33.816448,FOR SALE,-116.54277,"$118,500",568,CA,464 South Calle Encilia A12,92262
2,3,Laguna Woods,0,Condo/Townhome,33.617087,FOR SALE,-117.746648,"$1,099,000","1,592",CA,5084 Ovalo,92637
4,3,Friant,0,Condo/Townhome,37.05389,FOR SALE,-119.649321,"$599,999","2,750",CA,49405 Ralston Ridge,93626
2,3,Alhambra,1,Condo/Townhome,34.09374,FOR SALE,-118.12328,"$568,000","1,295",CA,200 E Bay State St C,91801
2,3,Huntington Beach,0,Condo/Townhome,33.7286,FOR SALE,-118.052,"$349,900","1,218",CA,16095 Warmington Lane 1,92649
2,3,Huntington Beach,0,Condo/Townhome,33.7286,FOR SALE,-118.052,"$349,900","1,218",CA,16095 Warmington Lane 1,92649
1,2,Stanton,0,Condo/Townhome,33.8099,FOR SALE,-118.009,"$339,900",825,CA,7100 Cerritos Avenue 83,90680
2,2,Hawaiian Gardens,0,Condo/Townhome,33.8327,FOR SALE,-118.069,"$329,000",960,CA,21606 Belshire Avenue 5,90716
2,2,Hawaiian Gardens,0,Condo/Townhome,33.8327,FOR SALE,-118.069,"$329,000",960,CA,21606 Belshire Avenue 5,90716
2,2,Azusa,0,Condo/Townhome,34.1085,FOR SALE,-117.891,"$327,000",990,CA,777 S Citrus Avenue 218,91702
2,2,Murrieta,0,Condo/Townhome,33.554,FOR SALE,-117.164,"$320,000","1,532",CA,39875 Alpine Union Street A,92563
2,2,San Diego,0,Condo/Townhome,32.772,FOR SALE,-117.075,"$320,000",697,CA,5540 Lindo Paseo 3,92115
1,2,El Monte,0,Condo/Townhome,34.0605,FOR SALE,-118.022,"$318,000",819,CA,11937 Magnolia Street 21,91732
1,2,El Monte,0,Condo/Townhome,34.0605,FOR SALE,-118.022,"$318,000",819,CA,11937 Magnolia Street 21,91732
1,1,Long Beach,0,Condo/Townhome,33.7736,FOR SALE,-118.176,"$305,000",686,CA,550 Orange Avenue 113,90802
2,2,Rancho Mirage,0,Condo/Townhome,33.79259,FOR SALE,-116.42921,"$298,000","1,756",CA,904 INVERNESS Drive,92270
1,1,San Diego,0,Condo/Townhome,32.7669,FOR SALE,-117.18,"$289,900",661,CA,6406 Friars Rd 134,92108
1,2,Oceanside,0,Condo/Townhome,33.2462,FOR SALE,-117.314,"$277,900",741,CA,155 Avenida Descanso 102,92057
1,2,Lakeside,0,Condo/Townhome,32.8622,FOR SALE,-116.917,"$249,000",921,CA,12730 Laurel Street 305,92040
1,1,Corona,0,Condo/Townhome,33.8658,FOR SALE,-117.619,"$248,000",650,CA,2350 Del Mar Way 305,92882
1,2,El Cajon,1,Condo/Townhome,32.8003,FOR SALE,-116.957,"$235,000",925,CA,505 E Madison Avenue 85,92020
1,1,Laguna Woods,1,Condo/Townhome,33.6126,FOR SALE,-117.747,"$229,900",837,CA,5369 Algarrobo 1F,92637
1,1,Corona,0,Condo/Townhome,33.9006,FOR SALE,-117.531,"$225,000",724,CA,2040 Las Colinas Circle 206,92879
1,1,Huntington Beach,0,Condo/Townhome,33.6882,FOR SALE,-117.993,"$208,000",657,CA,18900 Delaware Street 335,92648
2,2,Los Angeles,0,Condo/Townhome,34.0465,FOR SALE,-118.237,"$899,000","1,330",CA,629 Traction Avenue 614,90013
3,3,Arcadia,0,Condo/Townhome,34.1333,FOR SALE,-118.025,"$888,000","1,610",CA,613 S 2nd Ave,91006
3,4,Arcadia,0,Condo/Townhome,34.1329,FOR SALE,-118.025,"$865,000","1,566",CA,615 S 2nd Ave,91006
2,3,Irvine,1,Condo/Townhome,33.6963,FOR SALE,-117.752,"$789,000","1,719",CA,129 Regal,92620
2,3,Irvine,1,Condo/Townhome,33.6963,FOR SALE,-117.752,"$789,000","1,719",CA,129 Regal,92620
3,3,Long Beach,0,Condo/Townhome,33.7747,FOR SALE,-118.117,"$744,990","2,068",CA,601 Holbrook Court 103,90803
3,3,Arcadia,0,Condo/Townhome,34.133,FOR SALE,-118.024,"$738,000","1,475",CA,613 S 3rd Avenue B,91006
2,2,San Diego,0,Condo/Townhome,32.7112,FOR SALE,-117.159,"$649,900","1,032",CA,575 6th Ave 310,92101
2,3,Rancho Santa Margarita,1,Condo/Townhome,33.6409,FOR SALE,-117.589,"$564,000","1,400",CA,6 Via Barcelona,92688
2,2,Rancho Mission Viejo,1,Condo/Townhome,33.5277,FOR SALE,-117.618,"$549,900","1,520",CA,11 Higo Street,92694
2,2,Rancho Mission Viejo,1,Condo/Townhome,33.5277,FOR SALE,-117.618,"$549,900","1,520",CA,11 Higo Street,92694
2,3,Simi Valley,1,Condo/Townhome,34.2514,FOR SALE,-118.813,"$523,000","1,579",CA,"620  Ivywood Lane, E E",93065
2,3,Downey,0,Condo/Townhome,33.9486,FOR SALE,-118.127,"$505,000","1,968",CA,10420 Downey Avenue 205,90241
1,1,Studio City,1,Condo/Townhome,34.1409,FOR SALE,-118.368,"$499,000","1,094",CA,10926 Bluffside Drive 3,91604
2,2,Fullerton,1,Condo/Townhome,33.8868,FOR SALE,-117.92,"$479,900","1,150",CA,512 Quiet Brook Circle 188,92831
2,2,Fullerton,1,Condo/Townhome,33.8868,FOR SALE,-117.92,"$479,900","1,150",CA,512 Quiet Brook Circle 188,92831
2,2,Ventura,0,Condo/Townhome,34.2638,FOR SALE,-119.226,"$470,000","1,270",CA,1080 Stravinsky Lane,93003
2,2,Huntington Beach,0,Condo/Townhome,33.6596,FOR SALE,-117.973,"$449,000","1,055",CA,8788 Coral Springs Court 205F,92646
2,2,San Diego,0,Condo/Townhome,32.7186,FOR SALE,-117.144,"$430,000",979,CA,1233 22Nd St 5,92102
2,3,Rancho Cucamonga,1,Condo/Townhome,34.1242,FOR SALE,-117.514,"$425,000","1,611",CA,7161 East Avenue 43,91739
3,3,Monterey Hills,0,Condo/Townhome,34.0945,FOR SALE,-118.188,"$605,000","1,419",CA,4225 Via Arbolada 519,90042
2,3,Aliso Viejo,1,Condo/Townhome,33.5791,FOR SALE,-117.732,"$595,000","1,531",CA,27 Tulare Drive,92656
2,3,Newbury Park,1,Condo/Townhome,34.179424,FOR SALE,-118.91158,"$579,500","1,562",CA,40 Secret Hollow Lane,91320
1,1,San Diego,0,Condo/Townhome,32.7098,FOR SALE,-117.156,"$569,000",848,CA,427 9th Avenue 1403,92101
2,2,Carson,1,Condo/Townhome,33.8301,FOR SALE,-118.265,"$560,000","1,376",CA,668 Colorado Circle,90745
2,2,Carson,1,Condo/Townhome,33.8301,FOR SALE,-118.265,"$560,000","1,376",CA,668 Colorado Circle,90745
3,3,La Quinta,1,Condo/Townhome,33.6445,FOR SALE,-116.266,"$549,999","2,125",CA,55837 Oakhill,92253
1,1,Oakland,0,Condo/Townhome,37.8125,FOR SALE,-122.259,"$549,000","1,013",CA,193 Montecito Avenue 203,94610
2,3,Simi Valley,1,Condo/Townhome,34.269328,FOR SALE,-118.793412,"$535,000","1,499",CA,173 Harpstone Lane 158,93065
2,2,Carlsbad,0,Condo/Townhome,33.0995,FOR SALE,-117.265,"$535,000","1,372",CA,7087 Estrella De Mar Rd B,92009
2,3,Lake Forest,1,Condo/Townhome,33.6405,FOR SALE,-117.673,"$535,000","1,351",CA,26367 W Grove Circle 60,92630
3,4,Chino,0,Condo/Townhome,33.9873,FOR SALE,-117.673,"$525,000","1,996",CA,14653 Marquette Avenue,91710
3,4,Chino,0,Condo/Townhome,33.9873,FOR SALE,-117.673,"$525,000","1,996",CA,14653 Marquette Avenue,91710
2,2,Palm Springs,0,Condo/Townhome,33.84552,FOR SALE,-116.53813,"$525,000","1,230",CA,197 West VIA LOLA 1,92262
2,3,Carlsbad,1,Condo/Townhome,33.1663,FOR SALE,-117.295,"$515,000","1,341",CA,4051 Peninsula Drive,92010
2,3,San Diego,1,Condo/Townhome,32.7989,FOR SALE,-117.158,"$508,000","1,247",CA,7611 Family Circle,92111
2,3,Camarillo,1,Condo/Townhome,34.21918,FOR SALE,-119.011764,"$500,000","1,348",CA,266 Calle Orovista,93012
2,3,Simi Valley,1,Condo/Townhome,34.252834,FOR SALE,-118.809042,"$479,999","1,579",CA,450 Country Club Drive C,93065
2,2,Woodland Hills,0,Condo/Townhome,34.1727,FOR SALE,-118.599,"$475,000","1,050",CA,21500 Burbank Boulevard 322,91367
2,2,Huntington Beach,0,Condo/Townhome,33.7131,FOR SALE,-118.041,"$470,000",982,CA,5071 DORADO Drive 112,92649
2,3,Oceanside,1,Condo/Townhome,33.1902,FOR SALE,-117.379,"$1,199,000","1,931",CA,313 S Myers Street 2,92054
2,3,Pacific Palisades,1,Condo/Townhome,34.06986,FOR SALE,-118.56186,"$1,195,000","1,820",CA,1283 PALISADES Drive,90272
2,1,San Francisco,0,Condo/Townhome,37.771652,FOR SALE,-122.411812,"$1,100,000","1,343",CA,380 10th Street Unit: 18,94103
2,2,San Diego,0,Condo/Townhome,32.7119,FOR SALE,-117.165,"$1,099,000","1,370",CA,645 Front St. 1607,92101
3,3,Huntington Beach,0,Condo/Townhome,33.7286,FOR SALE,-118.062,"$1,095,000","1,890",CA,16087 Saint Croix Circle,92649
2,3,Los Angeles (City),1,Condo/Townhome,34.07771,FOR SALE,-118.36296,"$1,095,000","1,630",CA,357 North HAYWORTH Avenue 302,90048
2,3,Irvine,1,Condo/Townhome,33.6845,FOR SALE,-117.754,"$1,048,000","1,879",CA,118 Island Coral,92620
2,3,Irvine,1,Condo/Townhome,33.6845,FOR SALE,-117.754,"$1,048,000","1,879",CA,118 Island Coral,92620
3,3,Pismo Beach,1,Condo/Townhome,35.1442,FOR SALE,-120.643,"$960,000","1,756",CA,374 San Luis Avenue,93449
2,2,San Diego,1,Condo/Townhome,32.7227,FOR SALE,-117.231,"$929,900","1,798",CA,3025 Byron 203,92106
3,4,Newport Beach,0,Condo/Townhome,33.6251,FOR SALE,-117.937,"$899,998","1,778",CA,24 Kamalii Court 262,92663
3,4,North Hollywood,0,Condo/Townhome,34.1588,FOR SALE,-118.368,"$870,000","2,196",CA,4840 Cleon Avenue 108,91601
2,2,Irvine,0,Condo/Townhome,33.654,FOR SALE,-117.751,"$859,990","1,900",CA,245 Carlow,92618
3,3,Los Angeles,0,Condo/Townhome,34.0951,FOR SALE,-118.345,"$839,500","1,510",CA,1319 N Detroit Street 6,90046
3,4,Torrance,0,Condo/Townhome,33.8253,FOR SALE,-118.339,"$805,000","1,867",CA,2300 Maple Avenue 231,90503
2,3,Castro Valley,1,Condo/Townhome,37.7106,FOR SALE,-122.037,"$799,950","1,561",CA,6050 Mount Rushmore Cir,94552
3,4,Culver City,0,Condo/Townhome,34.00424,FOR SALE,-118.39253,"$779,000","1,555",CA,4729 MAYTIME Lane,90230
2,3,San Clemente,1,Condo/Townhome,33.4271,FOR SALE,-117.61,"$765,000","2,100",CA,3 Vista Encanta 3,92672
2,2,Dublin,0,Condo/Townhome,37.7069,FOR SALE,-121.862,"$749,950","1,519",CA,4259 Fitzwilliam,94568
3,2,Burbank,0,Condo/Townhome,34.1809,FOR SALE,-118.307,"$740,000","1,770",CA,201 E Angeleno Avenue 133,91502
1,1,Hayward,0,Condo/Townhome,37.65618,FOR SALE,-122.04925,"$399,950",785,CA,2437 Creekside Ct,94542
1,2,Orange,1,Condo/Townhome,33.79499,FOR SALE,-117.85906,"$415,500","1,190",CA,700 W Walnut Avenue 59,92868
2,3,San Francisco,1,Condo/Townhome,37.7422028,FOR SALE,-122.4366684,"$1,399,000","1,900",CA,55 Topaz Way,94131
3,3,Encinitas,0,Condo/Townhome,33.0815,FOR SALE,-117.311,"$2,775,000","2,035",CA,1870 Parliament Road,92024
2,3,San Diego,0,Condo/Townhome,32.7173,FOR SALE,-117.171,"$2,248,888","1,944",CA,1199 Pacific Highway 2306,92101
2,3,Huntington Beach,1,Condo/Townhome,33.6744,FOR SALE,-118.021,"$1,275,000","2,361",CA,6260 Seabourne Drive 53,92648
2,3,Irvine,1,Condo/Townhome,33.6232,FOR SALE,-117.822,"$1,268,800","1,628",CA,24 Bower Tree,92603
3,5,La Jolla,0,Condo/Townhome,32.8236,FOR SALE,-117.245,"$1,199,000","2,903",CA,1839 Caminito Ascua,92037
3,4,Irvine,0,Condo/Townhome,33.7038,FOR SALE,-117.735,"$1,120,000","2,117",CA,72 Somerton,92620
3,4,Irvine,0,Condo/Townhome,33.7038,FOR SALE,-117.735,"$1,120,000","2,117",CA,72 Somerton,92620
2,3,San Diego,1,Condo/Townhome,32.7089,FOR SALE,-117.158,"$998,000","1,894",CA,325 7Th Ave 215,92101
1,2,Los Angeles,0,Condo/Townhome,34.0522,FOR SALE,-118.264,"$995,000","1,140",CA,1100 Wilshire Boulevard 2711,90017
2,2,Oakland,0,Condo/Townhome,37.7944,FOR SALE,-122.273,"$979,000","1,263",CA,311 2nd St 307,94607
3,3,Los Angeles (City),0,Condo/Townhome,34.107346566,FOR SALE,-118.249270245,"$968,000","1,897",CA,2980 RIPPLE Place 206,90039
2,3,Irvine,1,Condo/Townhome,33.7327,FOR SALE,-117.778,"$898,000","2,347",CA,52 Sorenson,92602
3,3,Irvine,0,Condo/Townhome,33.6911,FOR SALE,-117.736,"$809,900","1,963",CA,223 Follyhatch,92618
2,3,Danville,1,Condo/Townhome,37.8147,FOR SALE,-121.976,"$775,000","1,780",CA,418 Old Orchard Ct,94526
2,2,Redondo Beach,1,Condo/Townhome,33.8764,FOR SALE,-118.38,"$750,000","1,471",CA,1900 Voorhees Avenue C,90278
2,3,Huntington Beach,1,Condo/Townhome,33.6629,FOR SALE,-117.998,"$735,000","1,384",CA,626 Lake Street 60,92648
2,3,Irvine,1,Condo/Townhome,33.6339,FOR SALE,-117.801,"$728,000","1,525",CA,13 Evening Song 21,92603
3,3,El Cajon,0,Condo/Townhome,32.78839,FOR SALE,-116.93212,"$405,000","1,420",CA,1380 E Washington avenue 9w,92019
1,2,Oxnard,0,Condo/Townhome,34.189746,FOR SALE,-119.220238,"$399,900","1,110",CA,3732 Via Pacifica Walk,93035
2,2,Hercules,0,Condo/Townhome,38.0095,FOR SALE,-122.28195,"$375,000","1,011",CA,101 Devonwood,94547
2,3,Quincy,0,Condo/Townhome,39.98084,FOR SALE,-120.941524,"$355,000","2,424",CA,39398 Highway 70,95971
1,1,Huntington Beach,0,Condo/Townhome,33.715301,FOR SALE,-118.013312,"$325,555",754,CA,6600 Warner Avenue #119,92647
1,1,Beckwourth,0,Condo/Townhome,39.82165,FOR SALE,-120.3768,"$124,900",956,CA,301 Indian Street,96129
2,3,Dana Point,1,Condo/Townhome,33.4866,FOR SALE,-117.723,"$1,525,000","1,858",CA,23256 Atlantis Way 48,92629
2,3,San Diego,0,Condo/Townhome,32.7173,FOR SALE,-117.171,"$1,524,900","1,945",CA,1199 Pacific Hwy 1606,92101
3,3,Newport Beach,0,Condo/Townhome,33.6181,FOR SALE,-117.935,"$1,499,000","1,515",CA,209 38th Street A,92663
3,3,Newport Beach,0,Condo/Townhome,33.6181,FOR SALE,-117.935,"$1,499,000","1,515",CA,209 38th Street A,92663
2,3,Irvine,1,Condo/Townhome,33.6454,FOR SALE,-117.758,"$1,200,000","2,022",CA,88 Cipresso,92618
2,3,Irvine,1,Condo/Townhome,33.6454,FOR SALE,-117.758,"$1,200,000","2,022",CA,88 Cipresso,92618
1,1,San Francisco,1,Condo/Townhome,37.783062,FOR SALE,-122.390114,"$1,168,000",815,CA,219 Brannan Street Unit: 15A,94107
3,3,Carlsbad,0,Condo/Townhome,33.0923,FOR SALE,-117.257,"$1,125,000","3,663",CA,7418 Avenida De Palais,92009
3,3,San Clemente,0,Condo/Townhome,33.4315,FOR SALE,-117.626,"$1,025,000","1,500",CA,1503 Calle Mirador A,92672
2,2,West Hollywood,0,Condo/Townhome,34.09319,FOR SALE,-118.38303,"$845,000","1,297",CA,1230 HORN Avenue 101,90069
2,2,Huntington Beach,1,Condo/Townhome,33.7252,FOR SALE,-118.074,"$799,000","1,390",CA,16511 Bordeaux Lane 209,92649
2,3,Dana Point,1,Condo/Townhome,33.472,FOR SALE,-117.693,"$759,900","1,966",CA,33791 Mariana Drive 3,92629
2,2,Los Angeles (City),1,Condo/Townhome,34.09647,FOR SALE,-118.35141,"$750,000","1,355",CA,1416 North VISTA Street 2,90046
2,3,Irvine,1,Condo/Townhome,33.6522,FOR SALE,-117.778,"$749,500","1,330",CA,34 Windchime,92603
1,2,Sacramento,0,Condo/Townhome,38.62583,FOR SALE,-121.50008,"$152,000",956,CA,500 Del Verde Circle Unit 8,95833
1,1,Palm Springs,0,Condo/Townhome,33.85802,FOR SALE,-116.55571,"$96,900",589,CA,2857 N Los Felices Rd #215,92262
3,3,Los Angeles (City),0,Condo/Townhome,34.06281,FOR SALE,-118.30869,"$2,750,000","2,810",CA,3785 Wilshire Ph-5,90010
2,2,Marina del Rey,1,Condo/Townhome,33.9846,FOR SALE,-118.445,"$2,000,000","1,770",CA,13700 Marina Pointe Drive PH1916,90292
2,2,Laguna Beach,0,Condo/Townhome,33.506,FOR SALE,-117.748,"$1,775,000","1,150",CA,31423 Hwy Coast 12,92651
3,4,Carlsbad,0,Condo/Townhome,33.1571,FOR SALE,-117.35,"$1,749,000","3,017",CA,3120 Lincoln St,92008
2,3,Irvine,1,Condo/Townhome,33.6327,FOR SALE,-117.822,"$1,394,900","2,038",CA,1 Shade Tree,92603
2,3,Manhattan Beach,1,Condo/Townhome,33.8807,FOR SALE,-118.379,"$1,150,000","1,747",CA,211 Aviation Place,90266
2,3,Rancho Mirage,0,Condo/Townhome,33.767891,FOR SALE,-116.429863,"$949,000","3,061",CA,6 Trinity Court,92270
3,3,Irvine,1,Condo/Townhome,33.664,FOR SALE,-117.776,"$839,800","1,822",CA,102 Oak Forest,92618
3,3,Irvine,1,Condo/Townhome,33.664,FOR SALE,-117.776,"$839,800","1,822",CA,102 Oak Forest,92618
2,3,Sherman Oaks,1,Condo/Townhome,34.1517,FOR SALE,-118.429,"$775,000","2,272",CA,4454 Ventura Canyon Avenue 308,91423
2,3,Redondo Beach,1,Condo/Townhome,33.8735,FOR SALE,-118.369,"$769,000","1,692",CA,2308 Mathews Avenue 4,90278
2,2,Westlake Village,1,Condo/Townhome,34.148916,FOR SALE,-118.834918,"$764,900","1,904",CA,1206 S Westlake Boulevard E,91361
2,2,Oceanside,0,Condo/Townhome,33.2069,FOR SALE,-117.391,"$750,000","1,364",CA,1200 Harbor Dr. N 11C,92054
2,2,Oceanside,0,Condo/Townhome,33.2069,FOR SALE,-117.391,"$750,000","1,364",CA,1200 Harbor Dr. N 11C,92054
3,4,Lake Arrowhead,1,Condo/Townhome,34.2525,FOR SALE,-117.182,"$699,000","1,972",CA,184 State Hwy 173 50,92352
2,2,San Diego,0,Condo/Townhome,32.7086,FOR SALE,-117.155,"$679,000","1,103",CA,321 10th Avenue 1407,92101
2,2,Studio City,0,Condo/Townhome,34.14716,FOR SALE,-118.40485,"$645,000","1,297",CA,4212 WHITSETT Avenue 101,91604
2,2,Oceanside,0,Condo/Townhome,33.1632,FOR SALE,-117.267,"$619,000","1,800",CA,4702 Majorca Way,92056
2,3,Corona del Mar,1,Condo/Townhome,33.5971,FOR SALE,-117.865,"$2,595,000","2,194",CA,701 Poinsettia,92625
2,4,Redondo Beach,1,Condo/Townhome,33.8745,FOR SALE,-118.379,"$1,299,000","2,340",CA,1916 Nelson Avenue A,90278
2,2,San Diego,1,Condo/Townhome,32.7119,FOR SALE,-117.165,"$955,000","1,291",CA,645 Front 1606,92101
2,2,Newport Beach,0,Condo/Townhome,33.6278,FOR SALE,-117.868,"$898,900","1,197",CA,59 Sea Pine Lane,92660
3,3,Irvine,0,Condo/Townhome,33.6963,FOR SALE,-117.752,"$794,000","1,961",CA,73 Winding Way,92620
2,3,Huntington Beach,0,Condo/Townhome,33.6629,FOR SALE,-117.971,"$660,000","1,287",CA,8933 Yolo Circle 1308C,92646
2,3,Huntington Beach,0,Condo/Townhome,33.6629,FOR SALE,-117.971,"$660,000","1,287",CA,8933 Yolo Circle 1308C,92646
2,2,Temple City,1,Condo/Townhome,34.1007,FOR SALE,-118.06,"$630,000","1,584",CA,9575 Broadway 2,91780
1,1,San Jose,0,Condo/Townhome,37.2416,FOR SALE,-121.795,"$610,880",808,CA,5951 Sunstone Drive 309,95123
2,3,Orange,1,Condo/Townhome,33.7962,FOR SALE,-117.818,"$599,000","1,771",CA,596 N Pageant Drive A,92869
2,2,Oxnard,1,Condo/Townhome,34.19559,FOR SALE,-119.24458,"$579,000","1,258",CA,5413 Driftwood Street,93035
2,2,San Diego,0,Condo/Townhome,32.711,FOR SALE,-117.165,"$550,000","1,036",CA,555 Front 401,92101
2,3,Thousand Oaks,1,Condo/Townhome,34.214272,FOR SALE,-118.86706,"$519,900","1,501",CA,2601 Los Arcos Circle,91360
2,2,Aliso Viejo,0,Condo/Townhome,33.5743,FOR SALE,-117.723,"$475,000","1,063",CA,59 Wisteria Place,92656
2,2,Lake Forest,1,Condo/Townhome,33.6421,FOR SALE,-117.68,"$469,900","1,120",CA,25712 Le Parc 54,92630
2,2,Chula Vista,1,Condo/Townhome,32.6579,FOR SALE,-116.97,"$419,000","1,458",CA,2207 Huntington Point Rd 15,91914
2,2,San Diego,0,Condo/Townhome,32.7813,FOR SALE,-117.172,"$415,000","1,138",CA,2045 Burton Street 53,92111
1,3,San Diego,1,Condo/Townhome,32.788,FOR SALE,-117.097,"$399,900","1,066",CA,4530 Vandever Avenue 3,92120
3,3,Rancho Mirage,0,Condo/Townhome,33.792988,FOR SALE,-116.430763,"$399,089","2,227",CA,714 Inverness Drive,92270
2,2,Long Beach,0,Condo/Townhome,33.7708,FOR SALE,-118.179,"$399,000",929,CA,1045 E 3rd Street 5,90802
2,3,Pacoima,1,Condo/Townhome,34.2611,FOR SALE,-118.402,"$405,000","1,580",CA,12368 Osborne Street 19,91331
2,2,Lake Forest,1,Condo/Townhome,33.6394,FOR SALE,-117.704,"$399,000","1,208",CA,22281 Vista Verde Drive,92630
2,2,Camarillo,0,Condo/Townhome,34.224,FOR SALE,-119.039364,"$398,000",960,CA,641 Arneill Road,93010
1,1,Long Beach,0,Condo/Townhome,33.7662,FOR SALE,-118.188,"$395,000",680,CA,388 E Ocean Boulevard 407,90802
2,2,San Pedro,0,Condo/Townhome,33.756,FOR SALE,-118.308,"$394,900",840,CA,1441 Brett Place 341,90732
2,3,Corona,1,Condo/Townhome,33.8534,FOR SALE,-117.544,"$379,000","1,385",CA,2000 Napoli Court 103,92881
2,2,Laguna Woods,0,Condo/Townhome,33.6179,FOR SALE,-117.717,"$379,000","1,009",CA,2259 Via Puerta D,92637
2,2,San Diego,0,Condo/Townhome,32.7669,FOR SALE,-117.18,"$375,000",972,CA,6406 Friars Road 235,92108
2,2,San Diego,0,Condo/Townhome,32.6874,FOR SALE,-117.023,"$365,500","1,293",CA,1866 MANZANA Way,92139
1,2,Lake Forest,0,Condo/Townhome,33.6405,FOR SALE,-117.68,"$364,900",957,CA,22182 Cedar Pointe 1D,92630
2,3,Big Bear,0,Condo/Townhome,34.2379,FOR SALE,-116.888,"$349,900","1,528",CA,795 Summit Boulevard 3,92315
2,3,Big Bear Lake,0,Condo/Townhome,34.2379,FOR SALE,-116.888,"$349,900","1,528",CA,795 Summit Boulevard 3,92315
1,2,San Pedro,1,Condo/Townhome,33.7415,FOR SALE,-118.32,"$349,900","1,143",CA,374 S Miraleste Drive S 411,90732
1,2,Torrance,0,Condo/Townhome,33.8126,FOR SALE,-118.295,"$349,900",796,CA,1133 Sepulveda Boulevard 202,90502
2,2,Laguna Woods,0,Condo/Townhome,33.6074,FOR SALE,-117.744,"$349,000","1,079",CA,3302 Via Carrizo A,92637
3,2,Arleta,0,Condo/Townhome,34.2492,FOR SALE,-118.447,"$339,900","1,217",CA,14333 Van Nuys Boulevard 56,91331
2,3,Big Bear Lake,1,Condo/Townhome,34.2271,FOR SALE,-116.863,"$329,900","1,421",CA,1377 Clubview Drive 30,92315
1,1,Newport Beach,0,Condo/Townhome,33.6251,FOR SALE,-117.933,"$324,900",561,CA,300 Cagney Lane 111,92663
1,3,Alpine,1,Condo/Townhome,32.8354,FOR SALE,-116.756,"$322,000","1,240",CA,2636 Alpine Blvd B,91901
2,3,Murrieta,1,Condo/Townhome,33.556,FOR SALE,-117.161,"$310,000","1,654",CA,39664 Columbia Union Drive B,92563
2,2,Los Angeles,0,Condo/Townhome,34.1353,FOR SALE,-118.342,"$549,945","1,151",CA,3480 Barham Boulevard 311,90068
2,2,Anaheim Hills,0,Condo/Townhome,33.8522,FOR SALE,-117.744,"$549,900","1,357",CA,7759 E Viewrim Drive,92808
3,4,Santee,1,Condo/Townhome,32.8531,FOR SALE,-116.981,"$549,000","2,039",CA,9811 Old Tree Ln,92071
2,2,Westlake Village,1,Condo/Townhome,34.162392,FOR SALE,-118.807394,"$549,000","1,251",CA,382 Via Colinas,91362
2,2,San Diego,0,Condo/Townhome,32.7109,FOR SALE,-117.154,"$529,900","1,105",CA,550 Park Blvd 2202,92101
3,2,Burbank,0,Condo/Townhome,34.1864,FOR SALE,-118.306,"$499,994","1,174",CA,552 E Palm Avenue G,91501
2,2,Rancho Santa Margarita,0,Condo/Townhome,33.6475,FOR SALE,-117.585,"$489,900","1,020",CA,41 Wild Horse Loop 37,92688
2,2,San Diego,0,Condo/Townhome,32.7446,FOR SALE,-117.163,"$489,500","1,051",CA,3666 3rd Avenue 204,92103
2,3,Simi Valley,0,Condo/Townhome,34.271404,FOR SALE,-118.690401,"$489,000","1,324",CA,1948 Suntree Lane A,93063
1,1,Long Beach,0,Condo/Townhome,33.76616,FOR SALE,-118.18812,"$488,000",600,CA,388 East OCEAN 1102,90802
1,1,Walnut Creek,0,Condo/Townhome,37.9139,FOR SALE,-122.058,"$478,000",858,CA,420 N Civic Dr 309,94596
1,2,Imperial Beach,0,Condo/Townhome,32.583,FOR SALE,-117.128,"$475,000",800,CA,263 Dahlia Ave 7,91932
2,2,Woodland Hills,0,Condo/Townhome,34.1707,FOR SALE,-118.601,"$465,000","1,050",CA,5500 Owensmouth Avenue 329,91367
3,4,Saugus,0,Condo/Townhome,34.3968,FOR SALE,-118.537,"$454,850","1,790",CA,25401 Quail Creek Court,91350
1,1,San Diego,0,Condo/Townhome,32.7097,FOR SALE,-117.154,"$450,000",966,CA,1150 J Street 220,92101
2,3,Vallejo,1,Condo/Townhome,38.1304,FOR SALE,-122.212,"$449,000","1,713",CA,7508 King Leopold Ct,94591
2,2,Oak Park,0,Condo/Townhome,34.1829,FOR SALE,-118.767,"$429,500","1,104",CA,631 Oak Run 307,91377
3,4,Corona,1,Condo/Townhome,33.9742,FOR SALE,-117.575,"$425,990","1,682",CA,1014 Savi Drive 104,92880
2,2,Pomona,1,Condo/Townhome,34.1121,FOR SALE,-117.749,"$425,000","1,370",CA,3784 Live Oak Drive,91767
1,2,Trabuco Canyon,0,Condo/Townhome,33.5922,FOR SALE,-117.597,"$406,500",808,CA,103 White Sands,92679
1,2,Santa Monica,0,Condo/Townhome,34.02228,FOR SALE,-118.47307,"$620,000",897,CA,1824 20TH Street C,90404
1,1,Fremont,0,Condo/Townhome,37.4905,FOR SALE,-121.925,"$589,000",827,CA,330 Sequim Cmn,94539
2,2,Anaheim Hills,0,Condo/Townhome,33.8367,FOR SALE,-117.775,"$579,888","1,472",CA,750 S Tourmaline Court,92807
2,2,Redondo Beach,0,Condo/Townhome,33.8327,FOR SALE,-118.377,"$575,000",955,CA,603 S Prospect Avenue 307,90277
2,3,Indio,2,Condo/Townhome,33.7347,FOR SALE,-116.192,"$569,990","2,274",CA,43252 Bacino Court,92203
2,3,Monterey Park,1,Condo/Townhome,34.056,FOR SALE,-118.113,"$568,000","1,498",CA,522 Sefton Avenue D,91755
2,3,Downey,1,Condo/Townhome,33.9458,FOR SALE,-118.114,"$559,900","1,494",CA,9120 Florence Avenue,90240
2,2,Burbank,0,Condo/Townhome,34.1866,FOR SALE,-118.305,"$549,900","1,163",CA,601 E Orange Grove Avenue 101,91501
1,1,Hermosa Beach,0,Condo/Townhome,33.8675,FOR SALE,-118.394,"$549,000",665,CA,1707 Pacific Coast Highway 409,90254
1,3,Cypress,1,Condo/Townhome,33.8226,FOR SALE,-118.062,"$545,000","1,426",CA,9610 Bloomfield Avenue,90630
2,3,Ladera Ranch,1,Condo/Townhome,33.5609,FOR SALE,-117.648,"$529,000","1,511",CA,23 Chadron Circle,92694
2,2,Mission Viejo,1,Condo/Townhome,33.5603,FOR SALE,-117.66,"$525,000","1,223",CA,27815 Berwick 34,92691
2,3,Sylmar,1,Condo/Townhome,34.3244,FOR SALE,-118.495,"$524,900","2,520",CA,16652 Nicklaus Drive 93,91342
2,3,Rancho Santa Margarita,1,Condo/Townhome,33.6409,FOR SALE,-117.589,"$524,900","1,342",CA,5 Via Barcelona,92688
2,3,Valencia,1,Condo/Townhome,34.4297,FOR SALE,-118.54,"$495,000","1,433",CA,26607 Sierra Court,91354
2,2,Monrovia,0,Condo/Townhome,34.1509,FOR SALE,-118.015,"$475,888","1,174",CA,752 W Foothill Boulevard 9,91016
2,3,San Diego,0,Condo/Townhome,32.7467,FOR SALE,-117.143,"$475,000","1,047",CA,3759 Florida St L,92104
2,2,Laguna Hills,1,Condo/Townhome,33.5818,FOR SALE,-117.703,"$469,900","1,270",CA,24415 Marquis Court 276,92653
2,3,San Diego,0,Condo/Townhome,32.7603,FOR SALE,-117.081,"$469,000","1,452",CA,4108 Collwood Lane,92115
1,3,North Hollywood,1,Condo/Townhome,34.205284,FOR SALE,-118.401451,"$469,000","1,308",CA,12316 Runnymede Street 3,91605
1,1,Rancho Mission Viejo,1,Condo/Townhome,33.5277,FOR SALE,-117.618,"$449,000",974,CA,3 Higo Street,92694
1,2,Trabuco Canyon,1,Condo/Townhome,33.5922,FOR SALE,-117.597,"$435,000","1,089",CA,53 White Sands,92679
2,2,Laguna Woods,0,Condo/Townhome,33.6104,FOR SALE,-117.747,"$429,900","1,188",CA,3368 Punta Alta N,92637
3,3,Laguna Woods,0,Condo/Townhome,33.6165,FOR SALE,-117.719,"$419,000","1,539",CA,2317 Via Puerta C,92637
1,1,Long Beach,0,Condo/Townhome,33.7662,FOR SALE,-118.188,"$399,000",680,CA,388 E Ocean Boulevard 406,90802
1,1,San Diego,0,Condo/Townhome,32.7159,FOR SALE,-117.151,"$379,000",808,CA,1480 Broadway 2620,92101
2,2,Anaheim,0,Condo/Townhome,33.839,FOR SALE,-117.977,"$375,000","1,138",CA,2637 W Cameron Court 118,92801
1,1,Aliso Viejo,0,Condo/Townhome,33.5694,FOR SALE,-117.722,"$369,000",762,CA,23412 PACIFIC PARK Drive 28B,92656
1,1,Dana Point,0,Condo/Townhome,33.4705,FOR SALE,-117.683,"$365,000",650,CA,33852 Del Obispo Street 8,92629
2,2,La Mesa,0,Condo/Townhome,32.7608,FOR SALE,-117.034,"$359,500",982,CA,4512 Parks Avenue 20,91942
1,2,Torrance,1,Condo/Townhome,33.8143,FOR SALE,-118.289,"$355,000",842,CA,23236 Sesame Street D,90502
1,2,Huntington Beach,0,Condo/Townhome,33.7205,FOR SALE,-117.991,"$349,900",835,CA,16713 Viewpoint Lane 138B,92647
1,2,Placentia,0,Condo/Townhome,33.8543,FOR SALE,-117.883,"$347,900",864,CA,948 Eastwind Drive,92870
1,1,Laguna Niguel,0,Condo/Townhome,33.5658,FOR SALE,-117.703,"$343,900",890,CA,27368 Young Drive,92677
1,2,Canoga Park,0,Condo/Townhome,34.1945,FOR SALE,-118.6,"$330,000",868,CA,6825 Alabama Avenue 309,91303
1,2,San Diego,0,Condo/Townhome,32.7539,FOR SALE,-117.115,"$325,000",760,CA,4227 36Th St 7,92104
2,2,Agoura Hills,0,Condo/Townhome,34.1548,FOR SALE,-118.755,"$317,000",868,CA,5800 Kanan Road 264,91301
1,1,South Lake Tahoe,0,Condo/Townhome,38.947647,FOR SALE,-119.960815,"$307,000",627,CA,3535 Lake Tahoe Boulevard Unit: 322,96150
2,2,Long Beach,0,Condo/Townhome,33.7884,FOR SALE,-118.164,"$269,900",842,CA,2343 E 17th Street 116,90804
1,1,Thousand Oaks,0,Condo/Townhome,34.190377,FOR SALE,-118.885663,"$219,000",514,CA,351 Chestnut Hill Court 36,91360
2,3,Bermuda Dunes,0,Condo/Townhome,33.738392,FOR SALE,-116.289398,"$325,000","1,952",CA,78590 Montego Bay Circle,92203
1,2,Bellflower,0,Condo/Townhome,33.8704,FOR SALE,-118.122,"$325,000",800,CA,9926 Cedar Street,90706
1,2,Bellflower,0,Condo/Townhome,33.8704,FOR SALE,-118.122,"$325,000",800,CA,9926 Cedar Street,90706
1,1,Tustin,0,Condo/Townhome,33.736,FOR SALE,-117.811,"$309,000",800,CA,13722 Red Hill Avenue 28,92780
1,2,Pacoima,1,Condo/Townhome,34.2624,FOR SALE,-118.403,"$305,000","1,224",CA,12351 Osborne Street 8,91331
1,1,Lake Forest,0,Condo/Townhome,33.6414,FOR SALE,-117.681,"$300,000",599,CA,25671 Le Parc 1,92630
2,2,San Diego,0,Condo/Townhome,32.7756,FOR SALE,-117.051,"$299,900","1,139",CA,6851 Alvarado Road 10,92120
2,2,San Diego,0,Condo/Townhome,32.7756,FOR SALE,-117.051,"$299,900","1,139",CA,6851 Alvarado Road 10,92120
2,2,Loma Linda,0,Condo/Townhome,34.0462,FOR SALE,-117.254,"$295,000","1,014",CA,11424 Benton Street,92354
2,2,Loma Linda,0,Condo/Townhome,34.0462,FOR SALE,-117.254,"$295,000","1,014",CA,11424 Benton Street,92354
2,2,Riverside,0,Condo/Townhome,33.9552,FOR SALE,-117.32,"$282,000","1,121",CA,375 Central Avenue 7,92507
2,2,Canyon Country,0,Condo/Townhome,34.4135,FOR SALE,-118.462,"$282,000",850,CA,18750 Mandan Street 1114,91351
2,2,Palm Springs,0,Condo/Townhome,33.815594,FOR SALE,-116.526634,"$276,000","1,199",CA,1777 East Ramon Road 1,92264
1,1,San Diego,0,Condo/Townhome,32.8013,FOR SALE,-117.027,"$249,950",724,CA,7838 Cowles Mountain Court C17,92119
2,2,Garden Grove,0,Condo/Townhome,33.7732,FOR SALE,-117.979,"$239,000",919,CA,8800 Garden Grove Boulevard 22,92844
1,1,Yorba Linda,0,Condo/Townhome,33.8918,FOR SALE,-117.81,"$225,900",552,CA,4748 Lakeview Avenue 33,92886
