Listing_type,Price,Full_address,Street,City,State,Zip_code,Latitude,Longitude,Square_Feet,Lot,Lot_conversion_to_sqft,House_type,Year_build,Parking,Hoa,Zillow_price_per_sqft,Zestimate,Rent_zestimate,House_website
Apartment for sale,"$255,000","12145 California St, Yucaipa, CA 92399",12145 California St ,Yucaipa,CA,92399,34.033038,-117.038463,890,null,null,Multi Family,1941,3 spaces,None,$287,"$255,001","$1,400/mo",https://www.zillow.com/homedetails/12145-California-St-Yucaipa-CA-92399/17396719_zpid/
Apartment for sale,"$1,229,000","2300 N St, Sacramento, CA 95816",2300 N St ,Sacramento,CA,95816,38.570819,-121.477761,"3,956",null,null,Multi Family,1925,No Data,None,$311,null,null,https://www.zillow.com/homedetails/2300-N-St-Sacramento-CA-95816/148169597_zpid/
Apartment for sale,"$869,000","2063 Sea Village Cir, Cardiff, CA 92007",2063 Sea Village Cir ,Cardiff,CA,92007,33.020138,-117.265802,"1,272",null,null,Multi Family,1985,4 spaces,$265/month,$683,"$855,712","$2,855/mo",https://www.zillow.com/homedetails/2063-Sea-Village-Cir-Cardiff-CA-92007/16725502_zpid/
Apartment for sale,"$749,000","924 Mooney Dr, Monterey Park, CA 91755",924 Mooney Dr ,Monterey Park,CA,91755,34.054407,-118.109123,"2,670",null,null,Multi Family,1924,Carport,null,$281,"$749,003","$2,500/mo",https://www.zillow.com/homedetails/924-Mooney-Dr-Monterey-Park-CA-91755/20665099_zpid/
Apartment for sale,"$579,900","88 W 49th St, Long Beach, CA 90805",88 W 49th St ,Long Beach,CA,90805,33.844557,-118.196218,"1,684",null,null,Multi Family,1958,2 spaces,null,$344,"$581,960","$2,200/mo",https://www.zillow.com/homedetails/88-W-49th-St-Long-Beach-CA-90805/21157398_zpid/
Apartment for sale,"$329,000","27734 Copco Rd, Montague, CA 96064",27734 Copco Rd ,Montague,CA,96064,41.964744,-122.263728,"3,500",null,null,Multi Family,No Data,No Data,null,$94,null,null,https://www.zillow.com/homedetails/27734-Copco-Rd-Montague-CA-96064/2079038537_zpid/
Apartment for sale,"$959,000","16230 Community St, North Hills, CA 91343",16230 Community St ,North Hills,CA,91343,34.222901,-118.486543,"2,394",null,null,Multi Family,1951,6 spaces,null,$401,"$959,003","$2,975/mo",https://www.zillow.com/homedetails/16230-Community-St-North-Hills-CA-91343/20151282_zpid/
Apartment for sale,"$649,900","854 E 107th St, Los Angeles, CA 90002",854 E 107th St ,Los Angeles,CA,90002,33.938979,-118.258957,"1,993",null,null,Multi Family,1942,No Data,None,$326,null,null,https://www.zillow.com/homedetails/854-E-107th-St-Los-Angeles-CA-90002/20959280_zpid/
Apartment for sale,"$795,000","6326 Vinevale Ave Apt B, Bell, CA 90201",6326 Vinevale Ave Apt B,Bell,CA,90201,33.97815,-118.180925,"2,668",null,null,Multi Family,1957,2 spaces,null,$298,"$795,004","$2,340/mo",https://www.zillow.com/homedetails/6326-Vinevale-Ave-APT-B-Bell-CA-90201/21071323_zpid/
Apartment for sale,"$899,000","3022 Quince St, San Diego, CA 92104",3022 Quince St ,San Diego,CA,92104,32.736787,-117.128656,"1,325",null,null,Multi Family,1946,Off street,null,$678,"$898,658","$2,550/mo",https://www.zillow.com/homedetails/3022-Quince-St-San-Diego-CA-92104/295354808_zpid/
Apartment for sale,"$1,650,000","227 E 19th St, Costa Mesa, CA 92627",227 E 19th St ,Costa Mesa,CA,92627,33.640151,-117.912451,"2,400",null,null,Multi Family,1955,1 space,None,$688,"$1,634,914","$3,100/mo",https://www.zillow.com/homedetails/227-E-19th-St-Costa-Mesa-CA-92627/25468834_zpid/
Apartment for sale,"$399,000","1209 Roselawn Ave, Modesto, CA 95351",1209 Roselawn Ave ,Modesto,CA,95351,37.613825,-121.006411,"2,808",null,null,Multi Family,1977,3 spaces,null,$142,"$399,001","$1,525/mo",https://www.zillow.com/homedetails/1209-Roselawn-Ave-Modesto-CA-95351/300254276_zpid/
Apartment for sale,"$899,000","127-127a Gardiner Ave, South San Francisco, CA 94080",127-127A Gardiner Ave ,South San Francisco,CA,94080,37.663348,-122.402199,"1,260",null,null,Multi Family,1920,No Data,null,$713,null,null,https://www.zillow.com/homedetails/127-127A-Gardiner-Ave-South-San-Francisco-CA-94080/2078950627_zpid/
Apartment for sale,"$1,199,000","410 Vine St, Glendale, CA 91204",410 Vine St ,Glendale,CA,91204,34.140598,-118.261386,"3,183",null,null,Multi Family,1908,3 spaces,null,$377,null,null,https://www.zillow.com/homedetails/410-Vine-St-Glendale-CA-91204/2079083729_zpid/
Apartment for sale,"$370,000","3436 Locust St, Riverside, CA 92501",3436 Locust St ,Riverside,CA,92501,33.988162,-117.37775,720,null,null,Multi Family,1924,No Data,null,$514,null,null,https://www.zillow.com/homedetails/3436-Locust-St-Riverside-CA-92501/2079576864_zpid/
Apartment for sale,"$310,000","41857 Briarwood Ave, Hemet, CA 92544",41857 Briarwood Ave ,Hemet,CA,92544,33.745202,-116.930689,"2,465",null,null,Multi Family,1972,4 spaces,null,$126,null,null,https://www.zillow.com/homedetails/41857-Briarwood-Ave-Hemet-CA-92544/2079875092_zpid/
Apartment for sale,"$44,950","13371 Clover St, Trona, CA 93562",13371 Clover St ,Trona,CA,93562,35.764124,-117.37296,"1,385",null,null,Multi Family,1942,2 spaces,null,$32,null,null,https://www.zillow.com/homedetails/13371-Clover-St-Trona-CA-93562/17483892_zpid/
Apartment for sale,"$424,950","6016 Rye Way, Carmichael, CA 95608",6016 Rye Way ,Carmichael,CA,95608,38.652262,-121.324198,"1,664",null,null,Multi Family,1963,2 spaces,None,$255,"$433,602","$1,500/mo",https://www.zillow.com/homedetails/6016-Rye-Way-Carmichael-CA-95608/26037546_zpid/
Apartment for sale,"$2,299,000","6670 W Pacific Coast Hwy, Ventura, CA 93001",6670 W Pacific Coast Hwy ,Ventura,CA,93001,34.356095,-119.44189,"1,910",null,null,Multi Family,2014,4 spaces,null,"$1,204","$2,267,078","$8,000/mo",https://www.zillow.com/homedetails/6670-W-Pacific-Coast-Hwy-Ventura-CA-93001/16318908_zpid/
Apartment for sale,"$995,000","600 S Eucalyptus Ave, Inglewood, CA 90301",600 S Eucalyptus Ave ,Inglewood,CA,90301,33.956439,-118.359287,"2,893",null,null,Multi Family,1930,4 spaces,$186/month,$344,"$990,121","$2,375/mo",https://www.zillow.com/homedetails/600-S-Eucalyptus-Ave-Inglewood-CA-90301/20337579_zpid/
Apartment for sale,"$480,000","16551 San Bernardino Ave, Fontana, CA 92335",16551 San Bernardino Ave ,Fontana,CA,92335,34.076897,-117.440911,2,null,null,Multi Family,1980,2 spaces,null,"$240,000","$484,571","$2,300/mo",https://www.zillow.com/homedetails/16551-San-Bernardino-Ave-Fontana-CA-92335/17338395_zpid/
Apartment for sale,"$259,000","21201 Teepee Rd, Apple Valley, CA 92307",21201 Teepee Rd ,Apple Valley,CA,92307,34.549266,-117.201437,"1,454",null,null,Multi Family,1958,Off street,null,$178,"$259,002","$1,100/mo",https://www.zillow.com/homedetails/21201-Teepee-Rd-Apple-Valley-CA-92307/17462187_zpid/
Apartment for sale,"$426,999","3741 Gail Dr, Oceanside, CA 92056",3741 Gail Dr ,Oceanside,CA,92056,33.182581,-117.303758,827,null,null,Multi Family,1974,2 spaces,None,$516,"$423,094","$2,200/mo",https://www.zillow.com/homedetails/3741-Gail-Dr-Oceanside-CA-92056/16613943_zpid/
Apartment for sale,"$599,000","6829 Brooklyn Ave, San Diego, CA 92114",6829 Brooklyn Ave ,San Diego,CA,92114,32.712787,-117.050736,"1,567",null,null,Multi Family,1947,No Data,null,$382,"$608,164","$2,850/mo",https://www.zillow.com/homedetails/6829-Brooklyn-Ave-San-Diego-CA-92114/295361614_zpid/
Apartment for sale,"$480,000","1191 Main St, Riverside, CA 92501",1191 Main St ,Riverside,CA,92501,34.007107,-117.364043,"2,232",null,null,Multi Family,1949,2 spaces,None,$215,null,null,https://www.zillow.com/homedetails/1191-Main-St-Riverside-CA-92501/2081069897_zpid/
Apartment for sale,"$784,950","21249 Ocean View Dr, Hayward, CA 94541",21249 Ocean View Dr ,Hayward,CA,94541,37.683747,-122.094599,"1,556",null,null,Multi Family,1947,2 spaces,None,$504,"$805,993","$2,900/mo",https://www.zillow.com/homedetails/21249-Ocean-View-Dr-Hayward-CA-94541/24963005_zpid/
Apartment for sale,"$999,000","3333 W 134th Pl, Hawthorne, CA 90250",3333 W 134th Pl ,Hawthorne,CA,90250,33.910219,-118.331994,"3,075",null,null,Multi Family,1940,8 spaces,null,$325,"$999,001","$2,600/mo",https://www.zillow.com/homedetails/3333-W-134th-Pl-Hawthorne-CA-90250/20353372_zpid/
Apartment for sale,"$699,000","3145 E Thompson St, Long Beach, CA 90805",3145 E Thompson St ,Long Beach,CA,90805,33.881256,-118.155861,"1,926",null,null,Multi Family,1951,2 spaces,None,$363,"$704,024","$2,300/mo",https://www.zillow.com/homedetails/3145-E-Thompson-St-Long-Beach-CA-90805/21146139_zpid/
Apartment for sale,"$1,685,000","3412 J St, Sacramento, CA 95816",3412 J St ,Sacramento,CA,95816,38.571403,-121.461151,"1,480",null,null,Multi Family,1917,4 spaces,None,"$1,139","$1,672,258","$1,675/mo",https://www.zillow.com/homedetails/3412-J-St-Sacramento-CA-95816/25784227_zpid/
New construction,"$750,000","803 W La Jolla St, Placentia, CA 92870",803 W La Jolla St ,Placentia,CA,92870,33.856735,-117.881142,"5,326",null,null,Multi Family,2020,3 spaces,None,$141,"$750,002","$2,650/mo",https://www.zillow.com/homedetails/803-W-La-Jolla-St-Placentia-CA-92870/25390765_zpid/
Apartment for sale,"$699,900","4556 Glines Ave, Santa Maria, CA 93455",4556 Glines Ave ,Santa Maria,CA,93455,34.872142,-120.417485,"2,335",null,null,Multi Family,1960,"Off street, On street",None,$300,"$691,359","$2,600/mo",https://www.zillow.com/homedetails/4556-Glines-Ave-Santa-Maria-CA-93455/15930747_zpid/
Apartment for sale,"$929,000","1679 Moonlight, Costa Mesa, CA 92627",1679 Moonlight ,Costa Mesa,CA,92627,33.635694,-117.927224,"1,905",null,null,Multi Family,2018,2 spaces,$336/month,$488,null,null,https://www.zillow.com/homedetails/1679-Moonlight-Costa-Mesa-CA-92627/305912894_zpid/
Apartment for sale,"$795,000","256 S Santa Fe Ave, San Jacinto, CA 92583",256 S Santa Fe Ave ,San Jacinto,CA,92583,33.784984,-116.96358,"4,700",null,null,Multi Family,1978,8 spaces,None,$169,"$779,790","$1,490/mo",https://www.zillow.com/homedetails/256-S-Santa-Fe-Ave-San-Jacinto-CA-92583/2123365952_zpid/
Apartment for sale,"$425,000","13057 California St, Yucaipa, CA 92399",13057 California St ,Yucaipa,CA,92399,34.016507,-117.038336,"1,944",null,null,Multi Family,1952,4 spaces,None,$219,"$425,000","$1,750/mo",https://www.zillow.com/homedetails/13057-California-St-Yucaipa-CA-92399/17397301_zpid/
Apartment for sale,"$249,750","56164 Papago Trl # A & B, Yucca Valley, CA 92284",56164 Papago Trl # A & B,Yucca Valley,CA,92284,34.118543,-116.439198,"2,024",null,null,Multi Family,1978,2 spaces,None,$123,null,null,https://www.zillow.com/homedetails/56164-Papago-Trl-A-B-Yucca-Valley-CA-92284/2079215986_zpid/
Apartment for sale,"$679,888","18169 Bear Valley Rd, Hesperia, CA 92345",18169 Bear Valley Rd ,Hesperia,CA,92345,34.470559,-117.266946,"4,338",null,null,Multi Family,1986,12 spaces,null,$157,"$665,241","$2,195/mo",https://www.zillow.com/homedetails/18169-Bear-Valley-Rd-Hesperia-CA-92345/17436370_zpid/
Apartment for sale,"$1,900,000","1307-1309 6th Ave, San Francisco, CA 94122",1307-1309 6th Ave ,San Francisco,CA,94122,37.763955,-122.463372,"3,450",null,null,Multi Family,1907,No Data,null,$551,null,null,https://www.zillow.com/homedetails/1307-1309-6th-Ave-San-Francisco-CA-94122/2079273893_zpid/
Apartment for sale,"$469,000","4829 Hedrick Ave, Riverside, CA 92505",4829 Hedrick Ave ,Riverside,CA,92505,33.923642,-117.480412,"2,089",null,null,Multi Family,1953,No Data,None,$225,null,null,https://www.zillow.com/homedetails/4829-Hedrick-Ave-Riverside-CA-92505/2080747782_zpid/
Apartment for sale,"$409,900","66801 Vista Pl # A & B, Desert Hot Springs, CA 92240",66801 Vista Pl # A & B,Desert Hot Springs,CA,92240,33.964968,-116.495955,"2,520",null,null,Multi Family,2005,No Data,null,$163,"$403,063","$2,200/mo",https://www.zillow.com/homedetails/66801-Vista-Pl-A-B-Desert-Hot-Springs-CA-92240/2081725891_zpid/
Apartment for sale,"$1,150,000","4543 Da Vinci St, San Diego, CA 92130",4543 Da Vinci St ,San Diego,CA,92130,32.942088,-117.218232,"2,119",null,null,Multi Family,1992,4 spaces,$100/month,$543,"$1,150,008","$4,100/mo",https://www.zillow.com/homedetails/4543-Da-Vinci-St-San-Diego-CA-92130/16777767_zpid/
Apartment for sale,"$799,000","2343 7th Ave, Oakland, CA 94606",2343 7th Ave ,Oakland,CA,94606,37.800517,-122.243519,"1,830",null,null,Multi Family,1924,1 space,null,$437,null,null,https://www.zillow.com/homedetails/2343-7th-Ave-Oakland-CA-94606/2079075841_zpid/
Apartment for sale,"$389,000","110 Walden St, Modesto, CA 95354",110 Walden St ,Modesto,CA,95354,37.640317,-120.988319,"1,840",null,null,Multi Family,1949,Detached Garage,None,$211,"$389,001","$1,350/mo",https://www.zillow.com/homedetails/110-Walden-St-Modesto-CA-95354/300257279_zpid/
Apartment for sale,"$275,000","44 Montgomery St, Markleeville, CA 96120",44 Montgomery St ,Markleeville,CA,96120,38.694309,-119.780792,651,null,null,Multi Family,1961,2 spaces,None,$422,"$234,265","$1,550/mo",https://www.zillow.com/homedetails/44-Montgomery-St-Markleeville-CA-96120/119675971_zpid/
Apartment for sale,"$950,000","672 34th St, Oakland, CA 94609",672 34th St ,Oakland,CA,94609,37.823774,-122.270591,"3,113",null,null,Multi Family,1911,1 space,None,$305,null,null,https://www.zillow.com/homedetails/672-34th-St-Oakland-CA-94609/24742026_zpid/
Apartment for sale,"$1,480,000","216 Roswell Ave, Long Beach, CA 90803",216 Roswell Ave ,Long Beach,CA,90803,33.763601,-118.143471,"2,248",null,null,Multi Family,1991,4 spaces,None,$658,"$1,475,515","$1,695/mo",https://www.zillow.com/homedetails/216-Roswell-Ave-Long-Beach-CA-90803/2123716133_zpid/
Apartment for sale,"$799,000","5105 S Harvard Blvd, Los Angeles, CA 90062",5105 S Harvard Blvd ,Los Angeles,CA,90062,33.996628,-118.306919,"3,435",null,null,Multi Family,1922,3 spaces,null,$233,"$791,838","$2,500/mo",https://www.zillow.com/homedetails/5105-S-Harvard-Blvd-Los-Angeles-CA-90062/20562182_zpid/
Apartment for sale,"$880,000","1022 Foothill Blvd, Oakland, CA 94606",1022 Foothill Blvd ,Oakland,CA,94606,37.793252,-122.24732,"1,804",null,null,Multi Family,1915,No Data,null,$488,null,null,https://www.zillow.com/homedetails/1022-Foothill-Blvd-Oakland-CA-94606/24758699_zpid/
Apartment for sale,"$1,995,000","112-114 Monte Cresta Ave, Oakland, CA 94611",112-114 Monte Cresta Ave ,Oakland,CA,94611,37.823958,-122.249714,"2,160",null,null,Multi Family,1926,2 spaces,null,$924,null,null,https://www.zillow.com/homedetails/112-114-Monte-Cresta-Ave-Oakland-CA-94611/2079096401_zpid/
For sale by owner,"$465,000","2155 Algonkin Ave, Chico, CA 95926",2155 Algonkin Ave ,Chico,CA,95926,39.748513,-121.856866,"2,350",null,null,Multi Family,1978,10 spaces,None,$198,"$435,775","$1,500/mo",https://www.zillow.com/homedetails/2155-Algonkin-Ave-Chico-CA-95926/18216039_zpid/
Apartment for sale,"$549,999","804 Grand Ave, Colton, CA 92324",804 Grand Ave ,Colton,CA,92324,34.074427,-117.338144,"2,100",null,null,Multi Family,1953,5 spaces,None,$262,"$550,004","$1,400/mo",https://www.zillow.com/homedetails/804-Grand-Ave-Colton-CA-92324/17359569_zpid/
Apartment for sale,"$649,000","1626 46th Ave, Oakland, CA 94601",1626 46th Ave ,Oakland,CA,94601,37.772102,-122.210355,"1,360",null,null,Multi Family,1918,1 space,null,$477,"$684,924","$2,600/mo",https://www.zillow.com/homedetails/1626-46th-Ave-Oakland-CA-94601/24780744_zpid/
Apartment for sale,"$459,000","29820 Landau Blvd, Cathedral City, CA 92234",29820 Landau Blvd ,Cathedral City,CA,92234,33.831213,-116.475248,"2,492",null,null,Multi Family,2001,2 spaces,null,$184,null,null,https://www.zillow.com/homedetails/29820-Landau-Blvd-Cathedral-City-CA-92234/2079985439_zpid/
Apartment for sale,"$539,000","12354 2nd St, Yucaipa, CA 92399",12354 2nd St ,Yucaipa,CA,92399,34.029307,-117.043582,"2,520",null,null,Multi Family,1945,3 spaces,None,$214,"$533,400","$2,150/mo",https://www.zillow.com/homedetails/12354-2nd-St-Yucaipa-CA-92399/17398101_zpid/
Apartment for sale,"$715,000","1650 Watertrough Rd, Sebastopol, CA 95472",1650 Watertrough Rd ,Sebastopol,CA,95472,38.378946,-122.836977,"1,986",null,null,Multi Family,1926,On street,null,$360,null,null,https://www.zillow.com/homedetails/1650-Watertrough-Rd-Sebastopol-CA-95472/15813608_zpid/
Foreclosure,"$149,900","700 E 3rd St, Bakersfield, CA 93307",700 E 3rd St ,Bakersfield,CA,93307,35.359564,-118.996079,"1,017",null,null,Multi Family,1956,3 spaces,null,$147,"$137,060","$1,200/mo",https://www.zillow.com/homedetails/700-E-3rd-St-Bakersfield-CA-93307/18936993_zpid/
Apartment for sale,"$1,040,000","686 Laguna Dr, Carlsbad, CA 92008",686 Laguna Dr ,Carlsbad,CA,92008,33.165616,-117.350443,"1,909",null,null,Multi Family,2004,2 spaces,$120/month,$545,"$1,056,317","$3,565/mo",https://www.zillow.com/homedetails/686-Laguna-Dr-Carlsbad-CA-92008/62773313_zpid/
Apartment for sale,"$890,000","9160 Rose St, Bellflower, CA 90706",9160 Rose St ,Bellflower,CA,90706,33.869255,-118.138267,"2,370",null,null,Multi Family,1947,12 spaces,None,$376,null,null,https://www.zillow.com/homedetails/9160-Rose-St-Bellflower-CA-90706/2080020399_zpid/
Apartment for sale,"$499,000","9821 Towne Ave, Los Angeles, CA 90003",9821 Towne Ave ,Los Angeles,CA,90003,33.946778,-118.26756,980,null,null,Multi Family,1926,No Data,None,$509,"$499,004","$2,500/mo",https://www.zillow.com/homedetails/9821-Towne-Ave-Los-Angeles-CA-90003/20959930_zpid/
Apartment for sale,"$1,295,000","4657 Park Blvd, Oakland, CA 94602",4657 Park Blvd ,Oakland,CA,94602,37.81065,-122.217089,"2,337",null,null,Multi Family,1915,1 space,null,$554,"$1,393,290","$3,000/mo",https://www.zillow.com/homedetails/4657-Park-Blvd-Oakland-CA-94602/24765257_zpid/
Apartment for sale,"$1,750,000","1717 Alabama St, Huntington Beach, CA 92648",1717 Alabama St ,Huntington Beach,CA,92648,33.672742,-117.997035,"4,232",null,null,Multi Family,1975,5 spaces,None,$414,"$1,681,100","$2,850/mo",https://www.zillow.com/homedetails/1717-Alabama-St-Huntington-Beach-CA-92648/25114270_zpid/
Apartment for sale,"$999,000","6740 Pasado Rd, Goleta, CA 93117",6740 Pasado Rd ,Goleta,CA,93117,34.411905,-119.864138,884,null,null,Multi Family,1928,2 spaces,null,"$1,130","$1,010,483","$4,000/mo",https://www.zillow.com/homedetails/6740-Pasado-Rd-Goleta-CA-93117/15913204_zpid/
Apartment for sale,"$1,775,000","458 N Sierra Bonita Ave, Los Angeles, CA 90036",458 N Sierra Bonita Ave ,Los Angeles,CA,90036,34.079918,-118.353965,"2,476",null,null,Multi Family,1925,3 spaces,null,$717,"$2,144,303","$3,700/mo",https://www.zillow.com/homedetails/458-N-Sierra-Bonita-Ave-Los-Angeles-CA-90036/20785581_zpid/
Apartment for sale,"$7,000,000","4216 The Strand, Manhattan Beach, CA 90266",4216 The Strand ,Manhattan beach,CA,90266,33.903988,-118.421156,"3,825",null,null,Multi Family,1952,5 spaces,None,"$1,830","$6,683,845","$6,650/mo",https://www.zillow.com/homedetails/4216-The-Strand-Manhattan-Beach-CA-90266/20396530_zpid/
Apartment for sale,"$799,000","15080 Castroville Blvd, Castroville, CA 95012",15080 Castroville Blvd ,Castroville,CA,95012,36.794275,-121.712668,"2,837",null,null,Multi Family,1963,2 spaces,null,$282,"$783,252","$2,395/mo",https://www.zillow.com/homedetails/15080-Castroville-Blvd-Castroville-CA-95012/300085891_zpid/
Apartment for sale,"$647,000","253 W Ramona St # 0, Ventura, CA 93001",253 W Ramona St # 0,Ventura,CA,93001,34.29087,-119.3021,"1,868",null,null,Multi Family,1926,2 spaces,null,$346,null,null,https://www.zillow.com/homedetails/253-W-Ramona-St-0-Ventura-CA-93001/2079020340_zpid/
Apartment for sale,"$739,000","12356 Rose Way, Waterford, CA 95386",12356 Rose Way ,Waterford,CA,95386,37.643974,-120.765478,"3,328",null,null,Multi Family,2019,Attached Garage,None,$222,null,null,https://www.zillow.com/homedetails/12356-Rose-Way-Waterford-CA-95386/111378539_zpid/
Apartment for sale,"$599,900","9925 Annetta Ave, South Gate, CA 90280",9925 Annetta Ave ,South Gate,CA,90280,33.942002,-118.190111,"1,704",null,null,Multi Family,1957,2 spaces,None,$352,"$599,903","$2,300/mo",https://www.zillow.com/homedetails/9925-Annetta-Ave-South-Gate-CA-90280/21035502_zpid/
Apartment for sale,"$670,000","2724 N Junipero Ave, Palm Springs, CA 92262",2724 N Junipero Ave ,Palm Springs,CA,92262,33.854507,-116.554666,"1,950",null,null,Multi Family,1960,5 spaces,null,$344,null,null,https://www.zillow.com/homedetails/2724-N-Junipero-Ave-Palm-Springs-CA-92262/2079153501_zpid/
Apartment for sale,"$849,700","15107 Burton St, Panorama City, CA 91402",15107 Burton St ,Panorama City,CA,91402,34.220733,-118.462209,"2,090",null,null,Multi Family,1948,1 space,null,$407,"$850,345","$2,770/mo",https://www.zillow.com/homedetails/15107-Burton-St-Panorama-City-CA-91402/19955101_zpid/
Apartment for sale,"$688,800","467 W 12th St, San Pedro, CA 90731",467 W 12th St ,San Pedro,CA,90731,33.733192,-118.287155,"1,656",null,null,Multi Family,1948,3 spaces,None,$416,"$688,801","$1,545/mo",https://www.zillow.com/homedetails/467-W-12th-St-San-Pedro-CA-90731/2091715899_zpid/
Apartment for sale,"$425,000","510 E 48th St, Los Angeles, CA 90011",510 E 48th St ,Los Angeles,CA,90011,33.999493,-118.26606,"2,168",null,null,Multi Family,1923,No Data,None,$196,"$428,156","$2,500/mo",https://www.zillow.com/homedetails/510-E-48th-St-Los-Angeles-CA-90011/20617069_zpid/
Apartment for sale,"$1,200,000","1831 E Fir St, Lindsay, CA 93247",1831 E Fir St ,Lindsay,CA,93247,36.223153,-119.067735,"1,650",null,null,Multi Family,2005,2 spaces,null,$727,"$1,158,481",$925/mo,https://www.zillow.com/homedetails/1831-E-Fir-St-Lindsay-CA-93247/300064329_zpid/
Apartment for sale,"$350,000","8117-8123 Palm Ln, San Bernardino, CA 92410",8117-8123 Palm Ln ,San Bernardino,CA,92410,34.106001,-117.271631,"1,030",null,null,Multi Family,1939,4 spaces,None,$340,null,null,https://www.zillow.com/homedetails/8117-8123-Palm-Ln-San-Bernardino-CA-92410/2079985603_zpid/
Apartment for sale,"$370,000","2747 Swallowtail Way, Chico, CA 95973",2747 Swallowtail Way ,Chico,CA,95973,39.765775,-121.823306,"1,379",null,null,Multi Family,2009,4 spaces,None,$268,"$370,084","$1,895/mo",https://www.zillow.com/homedetails/2747-Swallowtail-Way-Chico-CA-95973/95393895_zpid/
Apartment for sale,"$920,000","5510 Inglewood Blvd # 5512, Culver City, CA 90230",5510 Inglewood Blvd # 5512,Culver City,CA,90230,33.984935,-118.406039,"1,740",null,null,Multi Family,1955,1 space,null,$529,null,null,https://www.zillow.com/homedetails/5510-Inglewood-Blvd-5512-Culver-City-CA-90230/2079268270_zpid/
Apartment for sale,"$645,000","6122 Mcnees Ave, Whittier, CA 90606",6122 McNees Ave ,Whittier,CA,90606,33.990023,-118.067644,"1,737",null,null,Multi Family,1932,3 spaces,null,$371,"$648,657","$2,500/mo",https://www.zillow.com/homedetails/6122-Mcnees-Ave-Whittier-CA-90606/21444427_zpid/
Apartment for sale,"$145,000","5476 Adobe Rd, Twentynine Palms, CA 92277",5476 Adobe Rd ,Twentynine Palms,CA,92277,34.154428,-116.054503,"1,476",null,null,Multi Family,1945,Attached Garage,null,$98,"$145,000",$950/mo,https://www.zillow.com/homedetails/5476-Adobe-Rd-Twentynine-Palms-CA-92277/17505170_zpid/
Apartment for sale,"$750,000","1726 W 37th Pl, Los Angeles, CA 90018",1726 W 37th Pl ,Los Angeles,CA,90018,34.019241,-118.309697,"1,048",null,null,Multi Family,1924,2 spaces,null,$716,"$745,936","$2,500/mo",https://www.zillow.com/homedetails/1726-W-37th-Pl-Los-Angeles-CA-90018/20583874_zpid/
Apartment for sale,"$1,649,000","818 N Genesee Ave, Los Angeles, CA 90046",818 N Genesee Ave ,Los Angeles,CA,90046,34.085933,-118.35812,"2,291",null,null,Multi Family,1925,2 spaces,null,$720,"$2,048,047","$4,775/mo",https://www.zillow.com/homedetails/818-N-Genesee-Ave-Los-Angeles-CA-90046/20785892_zpid/
Apartment for sale,"$749,999","8987 May Ct, South Gate, CA 90280",8987 May Ct ,South Gate,CA,90280,33.949605,-118.183617,"2,200",null,null,Multi Family,1954,3 spaces,null,$341,"$750,008","$2,500/mo",https://www.zillow.com/homedetails/8987-May-Ct-South-Gate-CA-90280/21036901_zpid/
Apartment for sale,"$1,250,000","12271 Trask Ave, Garden Grove, CA 92843",12271 Trask Ave ,Garden Grove,CA,92843,33.767379,-117.915452,"4,492",null,null,Multi Family,1963,4 spaces,None,$278,"$1,215,277","$2,200/mo",https://www.zillow.com/homedetails/12271-Trask-Ave-Garden-Grove-CA-92843/25195883_zpid/
Apartment for sale,"$949,000","5711 Western Ave, Buena Park, CA 90621",5711 Western Ave ,Buena Park,CA,90621,33.877353,-118.002899,"2,504",null,null,Multi Family,1946,4 spaces,None,$379,"$938,990","$3,500/mo",https://www.zillow.com/homedetails/5711-Western-Ave-Buena-Park-CA-90621/25145320_zpid/
Apartment for sale,"$4,995,000","3316-3320 Scott St, San Francisco, CA 94123",3316-3320 Scott St ,San Francisco,CA,94123,37.800557,-122.440956,"3,939",null,null,Multi Family,1925,3 spaces,null,"$1,268","$4,754,113","$9,154/mo",https://www.zillow.com/homedetails/3316-3320-Scott-St-San-Francisco-CA-94123/2085020527_zpid/
New construction,"$830,000","9312 Pace Ave, Los Angeles, CA 90002",9312 Pace Ave ,Los Angeles,CA,90002,33.951799,-118.252848,"2,998",null,null,Multi Family,2020,3 spaces,null,$277,null,null,https://www.zillow.com/homedetails/9312-Pace-Ave-Los-Angeles-CA-90002/250224917_zpid/
Apartment for sale,"$795,000","4060 W 162nd St, Lawndale, CA 90260",4060 W 162nd St ,Lawndale,CA,90260,33.883306,-118.345951,"2,019",null,null,Multi Family,1950,2 spaces,null,$394,"$795,004","$2,500/mo",https://www.zillow.com/homedetails/4060-W-162nd-St-Lawndale-CA-90260/20364094_zpid/
Apartment for sale,"$275,000","3504 E Terrace Ave, Fresno, CA 93703",3504 E Terrace Ave ,Fresno,CA,93703,36.773025,-119.765554,"1,828",null,null,Multi Family,1953,3 spaces,null,$150,"$275,002","$1,150/mo",https://www.zillow.com/homedetails/3504-E-Terrace-Ave-Fresno-CA-93703/82866400_zpid/
Apartment for sale,"$820,000","1313 S Primrose Ave, Monrovia, CA 91016",1313 S Primrose Ave ,Monrovia,CA,91016,34.137469,-118.003322,"1,698",null,null,Multi Family,1951,6 spaces,None,$483,"$819,677","$2,375/mo",https://www.zillow.com/homedetails/1313-S-Primrose-Ave-Monrovia-CA-91016/21579421_zpid/
Apartment for sale,"$499,000","13401 Navajo Rd, Apple Valley, CA 92308",13401 Navajo Rd ,Apple Valley,CA,92308,34.495149,-117.189591,"3,596",null,null,Multi Family,1979,8 spaces,null,$139,"$493,959","$1,300/mo",https://www.zillow.com/homedetails/13401-Navajo-Rd-Apple-Valley-CA-92308/53064973_zpid/
Apartment for sale,"$550,000","44329 Palm Ave, Hemet, CA 92544",44329 Palm Ave ,Hemet,CA,92544,33.751256,-116.886962,"3,070",null,null,Multi Family,1917,2 spaces,None,$179,null,null,https://www.zillow.com/homedetails/44329-Palm-Ave-Hemet-CA-92544/2079110627_zpid/
Apartment for sale,"$695,000","9924 San Anselmo Ave, South Gate, CA 90280",9924 San Anselmo Ave ,South Gate,CA,90280,33.945211,-118.21934,"1,334",null,null,Multi Family,1947,3 spaces,null,$521,"$559,513","$2,500/mo",https://www.zillow.com/homedetails/9924-San-Anselmo-Ave-South-Gate-CA-90280/21026977_zpid/
Apartment for sale,"$689,000","1817 261st St, Lomita, CA 90717",1817 261st St ,Lomita,CA,90717,33.786279,-118.310181,"1,218",null,null,Multi Family,1948,No Data,None,$566,"$689,006","$2,400/mo",https://www.zillow.com/homedetails/1817-261st-St-Lomita-CA-90717/21348589_zpid/
Apartment for sale,"$1,349,900","716 Kingston Ct, San Diego, CA 92109",716 Kingston Ct ,San Diego,CA,92109,32.775813,-117.25271,"1,319",null,null,Multi Family,1999,3 spaces,None,"$1,023","$1,333,003","$4,794/mo",https://www.zillow.com/homedetails/716-Kingston-Ct-San-Diego-CA-92109/16923297_zpid/
Apartment for sale,"$350,000","1203 W Jackman St, Lancaster, CA 93534",1203 W Jackman St ,Lancaster,CA,93534,34.701237,-118.151886,"1,820",null,null,Multi Family,1951,2 spaces,None,$192,"$350,001","$1,799/mo",https://www.zillow.com/homedetails/1203-W-Jackman-St-Lancaster-CA-93534/20286974_zpid/
Apartment for sale,"$489,000","1034 S California St, Stockton, CA 95206",1034 S California St ,Stockton,CA,95206,37.943037,-121.281387,"2,234",null,null,Multi Family,1917,6 spaces,null,$219,"$489,001","$1,595/mo",https://www.zillow.com/homedetails/1034-S-California-St-Stockton-CA-95206/15329306_zpid/
Apartment for sale,"$438,880","4095 N Feland Ave, Fresno, CA 93722",4095 N Feland Ave ,Fresno,CA,93722,36.795415,-119.848622,"3,472",null,null,Multi Family,1981,3 spaces,null,$126,"$438,880","$1,075/mo",https://www.zillow.com/homedetails/4095-N-Feland-Ave-Fresno-CA-93722/82859085_zpid/
Apartment for sale,"$375,000","1829 Conifer Dr, Modesto, CA 95350",1829 Conifer Dr ,Modesto,CA,95350,37.667339,-121.024932,"1,832",null,null,Multi Family,1980,Attached Garage,None,$205,"$375,002","$1,269/mo",https://www.zillow.com/homedetails/1829-Conifer-Dr-Modesto-CA-95350/300253380_zpid/
Apartment for sale,"$2,150,000","235 6th St # 1, Seal Beach, CA 90740",235 6th St # 1,Seal Beach,CA,90740,33.743985,-118.10687,"3,450",null,null,Multi Family,1978,6 spaces,None,$623,null,null,https://www.zillow.com/homedetails/235-6th-St-1-Seal-Beach-CA-90740/2079851842_zpid/
Apartment for sale,"$2,088,000","81 Central Ave Lot 83, Sausalito, CA 94965",81 Central Ave Lot 83,Sausalito,CA,94965,37.851541,-122.482635,"2,336",null,null,Multi Family,1927,No Data,null,$894,null,null,https://www.zillow.com/homedetails/81-Central-Ave-LOT-83-Sausalito-CA-94965/2078873125_zpid/
Apartment for sale,"$545,000","66357 4th St, Desert Hot Springs, CA 92240",66357 4th St ,Desert Hot Springs,CA,92240,33.96481,-116.503864,,null,null,Multi Family,1950,2 spaces,null,No Data,null,null,https://www.zillow.com/homedetails/66357-4th-St-Desert-Hot-Springs-CA-92240/2079468629_zpid/
Apartment for sale,"$349,998","593 W Santa Ana Ave, Clovis, CA 93612",593 W Santa Ana Ave ,Clovis,CA,93612,36.805116,-119.722478,"2,222",null,null,Multi Family,1973,3 spaces,null,$158,"$344,225",$995/mo,https://www.zillow.com/homedetails/593-W-Santa-Ana-Ave-Clovis-CA-93612/82865397_zpid/
Apartment for sale,"$680,000","420 N Alameda Ave, Azusa, CA 91702",420 N Alameda Ave ,Azusa,CA,91702,34.128837,-117.905873,"1,692",null,null,Multi Family,1953,4 spaces,None,$402,"$680,004","$2,200/mo",https://www.zillow.com/homedetails/420-N-Alameda-Ave-Azusa-CA-91702/21626385_zpid/
Apartment for sale,"$449,950","1442 92nd Ave, Oakland, CA 94603",1442 92nd Ave ,Oakland,CA,94603,37.748987,-122.17259,"1,450",null,null,Multi Family,1949,2 spaces,null,$310,"$473,241","$2,150/mo",https://www.zillow.com/homedetails/1442-92nd-Ave-Oakland-CA-94603/24804173_zpid/
Apartment for sale,"$1,250,000","4060 W 141st St Apt A, Hawthorne, CA 90250",4060 W 141st St Apt A,Hawthorne,CA,90250,33.903636,-118.345169,"3,022",null,null,Multi Family,1954,8 spaces,null,$414,"$1,250,004","$2,500/mo",https://www.zillow.com/homedetails/4060-W-141st-St-APT-A-Hawthorne-CA-90250/20365265_zpid/
Apartment for sale,"$750,000","632 E 2nd St, National City, CA 91950",632 E 2nd St ,National City,CA,91950,32.682647,-117.10208,"2,450",null,null,Multi Family,1953,2 spaces,None,$306,"$750,006","$2,600/mo",https://www.zillow.com/homedetails/632-E-2nd-St-National-City-CA-91950/17096327_zpid/
Apartment for sale,"$1,098,800","500 Conifer Rd, Glendora, CA 91741",500 Conifer Rd ,Glendora,CA,91741,34.150917,-117.859238,"2,564",null,null,Multi Family,1949,4 spaces,None,$429,"$1,098,806","$3,300/mo",https://www.zillow.com/homedetails/500-Conifer-Rd-Glendora-CA-91741/21637728_zpid/
Apartment for sale,"$1,599,900","814-16 Jamaica Ct, San Diego, CA 92109",814-16 Jamaica Ct ,San Diego,CA,92109,32.773759,-117.25105,"2,126",null,null,Multi Family,1965,No Data,$200/month,$753,"$1,579,670","$4,500/mo",https://www.zillow.com/homedetails/814-16-Jamaica-Ct-San-Diego-CA-92109/16923418_zpid/
Apartment for sale,"$849,888","4601 Verdugo Rd, Los Angeles, CA 90065",4601 Verdugo Rd ,Los Angeles,CA,90065,34.133569,-118.233728,"2,073",null,null,Multi Family,1951,3 spaces,None,$410,"$849,892","$3,060/mo",https://www.zillow.com/homedetails/4601-Verdugo-Rd-Los-Angeles-CA-90065/20848450_zpid/
Apartment for sale,"$365,000","74218 Alessandro Dr, Palm Desert, CA 92260",74218 Alessandro Dr ,Palm Desert,CA,92260,33.722329,-116.369886,918,null,null,Multi Family,1957,No Data,None,$398,"$359,300","$1,600/mo",https://www.zillow.com/homedetails/74218-Alessandro-Dr-Palm-Desert-CA-92260/2129186382_zpid/
Apartment for sale,"$469,000","1783 New Horizons Dr, Manteca, CA 95336",1783 New Horizons Dr ,Manteca,CA,95336,37.79939,-121.188185,"2,194",null,null,Multi Family,1983,3 spaces,None,$214,"$469,072","$1,550/mo",https://www.zillow.com/homedetails/1783-New-Horizons-Dr-Manteca-CA-95336/15351090_zpid/
Apartment for sale,"$694,000","1350 Luella Dr, Los Angeles, CA 90063",1350 Luella Dr ,Los Angeles,CA,90063,34.055367,-118.175442,"1,740",null,null,Multi Family,1987,8 spaces,None,$399,"$702,876","$2,495/mo",https://www.zillow.com/homedetails/1350-Luella-Dr-Los-Angeles-CA-90063/20645804_zpid/
Apartment for sale,"$217,900","711 N Ferger Ave, Fresno, CA 93728",711 N Ferger Ave ,Fresno,CA,93728,36.752475,-119.807762,"1,591",null,null,Multi Family,1964,2 spaces,null,$137,"$204,378",$950/mo,https://www.zillow.com/homedetails/711-N-Ferger-Ave-Fresno-CA-93728/82783657_zpid/
Apartment for sale,"$1,950,000","373 E Whittley Ave, Avalon, CA 90704",373 E Whittley Ave ,Avalon,CA,90704,33.343002,-118.33117,"3,372",null,null,Multi Family,1960,4 spaces,null,$578,"$1,896,585","$2,850/mo",https://www.zillow.com/homedetails/373-E-Whittley-Ave-Avalon-CA-90704/21315969_zpid/
Apartment for sale,"$795,000","4741 W 173rd St, Lawndale, CA 90260",4741 W 173rd St ,Lawndale,CA,90260,33.87409,-118.360787,"1,741",null,null,Multi Family,1951,3 spaces,null,$457,"$795,006","$2,650/mo",https://www.zillow.com/homedetails/4741-W-173rd-St-Lawndale-CA-90260/20368017_zpid/
Apartment for sale,"$515,000","346 Brown St, Vacaville, CA 95688",346 Brown St ,Vacaville,CA,95688,38.366414,-121.977427,"1,445",null,null,Multi Family,1957,No Data,null,$356,"$516,046","$2,190/mo",https://www.zillow.com/homedetails/346-Brown-St-Vacaville-CA-95688/2090299940_zpid/
Apartment for sale,"$295,000","2023 Glendale Ave, Modesto, CA 95354",2023 Glendale Ave ,Modesto,CA,95354,37.639515,-120.961377,"1,486",null,null,Multi Family,1950,Attached Garage,None,$199,"$295,002","$1,350/mo",https://www.zillow.com/homedetails/2023-Glendale-Ave-Modesto-CA-95354/300257701_zpid/
Apartment for sale,"$225,000","6470 Ronald Dr, Yucca Valley, CA 92284",6470 Ronald Dr ,Yucca Valley,CA,92284,34.135675,-116.375672,"1,408",null,null,Multi Family,1984,1 space,null,$160,"$225,090",$975/mo,https://www.zillow.com/homedetails/6470-Ronald-Dr-Yucca-Valley-CA-92284/17498980_zpid/
Apartment for sale,"$899,000","2408 Q St, Sacramento, CA 95816",2408 Q St ,Sacramento,CA,95816,38.567094,-121.47757,"2,400",null,null,Multi Family,1951,4 spaces,None,$375,"$899,013","$2,000/mo",https://www.zillow.com/homedetails/2408-Q-St-Sacramento-CA-95816/25785236_zpid/
Apartment for sale,"$449,900","1918 Roosevelt Ave, Richmond, CA 94801",1918 Roosevelt Ave ,Richmond,CA,94801,37.939742,-122.350995,716,null,null,Multi Family,1912,Attached Garage,null,$628,"$463,396","$2,250/mo",https://www.zillow.com/homedetails/1918-Roosevelt-Ave-Richmond-CA-94801/18535697_zpid/
Apartment for sale,"$154,888","316 Hutchison St, Barstow, CA 92311",316 Hutchison St ,Barstow,CA,92311,34.901058,-117.02358,"1,220",null,null,Multi Family,1912,Attached Garage,null,$127,"$154,888","$1,000/mo",https://www.zillow.com/homedetails/316-Hutchison-St-Barstow-CA-92311/17271537_zpid/
Apartment for sale,"$675,000","1135 Del Monte Ave, Salinas, CA 93905",1135 Del Monte Ave ,Salinas,CA,93905,36.686037,-121.608098,"3,025",null,null,Multi Family,1942,No Data,null,$223,"$666,016","$2,150/mo",https://www.zillow.com/homedetails/1135-Del-Monte-Ave-Salinas-CA-93905/300083958_zpid/
Apartment for sale,"$980,000","316 Lafayette St, Glendale, CA 91205",316 Lafayette St ,Glendale,CA,91205,34.142049,-118.23153,"1,664",null,null,Multi Family,1924,4 spaces,None,$589,"$982,961","$2,800/mo",https://www.zillow.com/homedetails/316-Lafayette-St-Glendale-CA-91205/20849027_zpid/
Apartment for sale,"$550,000","2800 Prescott Rd, Modesto, CA 95350",2800 Prescott Rd ,Modesto,CA,95350,37.680646,-121.03104,896,null,null,Multi Family,1979,Attached Garage,None,$614,"$541,121","$1,403/mo",https://www.zillow.com/homedetails/2800-Prescott-Rd-Modesto-CA-95350/300255533_zpid/
Apartment for sale,"$795,000","Revere Ave, San Francisco, CA 94124", Revere Ave ,San Francisco,CA,94124,37.737503,-122.400452,,null,null,Multi Family,1907,No Data,null,No Data,null,null,https://www.zillow.com/homedetails/Revere-Ave-San-Francisco-CA-94124/2116795493_zpid/
Apartment for sale,"$690,000","217 E A St # 4, Pt Hueneme, CA 93041",217 E A St # 4,Pt Hueneme,CA,93041,34.152631,-119.198091,"2,397",null,null,Multi Family,1950,No Data,null,$288,null,null,https://www.zillow.com/homedetails/217-E-A-St-4-Pt-Hueneme-CA-93041/2079478355_zpid/
Apartment for sale,"$1,898,000","124 N Pass Ave, Burbank, CA 91505",124 N Pass Ave ,Burbank,CA,91505,34.150269,-118.342824,"4,197",null,null,Multi Family,1941,5 spaces,null,$452,null,null,https://www.zillow.com/homedetails/124-N-Pass-Ave-Burbank-CA-91505/2079966713_zpid/
Apartment for sale,"$600,000","3615 6th Ave, Sacramento, CA 95817",3615 6th Ave ,Sacramento,CA,95817,38.546531,-121.467984,"1,954",null,null,Multi Family,1912,3 spaces,None,$307,"$721,381","$1,915/mo",https://www.zillow.com/homedetails/3615-6th-Ave-Sacramento-CA-95817/25798128_zpid/
Apartment for sale,"$949,000","1221 Amapola Ave, Torrance, CA 90501",1221 Amapola Ave ,Torrance,CA,90501,33.835678,-118.324056,"1,932",null,null,Multi Family,1962,3 spaces,None,$491,"$949,004","$2,600/mo",https://www.zillow.com/homedetails/1221-Amapola-Ave-Torrance-CA-90501/21269904_zpid/
Apartment for sale,"$10,000,000","2115-2119 Hyde St, San Francisco, CA 94109", 2115-2119 Hyde St ,San Francisco,CA,94109,37.80062,-122.4197,"10,421",null,null,Multi Family,1910,No Data,null,$960,"$9,766,786","$5,500/mo",https://www.zillow.com/homedetails/2115-2119-Hyde-St-San-Francisco-CA-94109/2098312677_zpid/
Apartment for sale,"$950,000","7005 W Manchester Ave, Los Angeles, CA 90045",7005 W Manchester Ave ,Los Angeles,CA,90045,33.960078,-118.413946,"1,045",null,null,Multi Family,1953,2 spaces,None,$909,"$949,223","$2,845/mo",https://www.zillow.com/homedetails/7005-W-Manchester-Ave-Los-Angeles-CA-90045/20384255_zpid/
Apartment for sale,"$1,065,000","3611-13 Georgia St, San Diego, CA 92103",3611-13 Georgia St ,San Diego,CA,92103,32.743555,-117.144728,"1,698",null,null,Multi Family,1929,No Data,$277/month,$627,"$1,040,567","$3,100/mo",https://www.zillow.com/homedetails/3611-13-Georgia-St-San-Diego-CA-92103/295354557_zpid/
Apartment for sale,"$799,000","2952 W Avenue 34, Los Angeles, CA 90065",2952 W Avenue 34 ,Los Angeles,CA,90065,34.117079,-118.238664,"1,328",null,null,Multi Family,1930,2 spaces,null,$602,"$813,664","$2,800/mo",https://www.zillow.com/homedetails/2952-W-Avenue-34-Los-Angeles-CA-90065/20758424_zpid/
Apartment for sale,"$829,000","10318 S Freeman Ave, Inglewood, CA 90304",10318 S Freeman Ave ,Inglewood,CA,90304,33.942059,-118.347977,"1,716",null,null,Multi Family,1948,2 spaces,None,$483,"$829,004","$2,795/mo",https://www.zillow.com/homedetails/10318-S-Freeman-Ave-Inglewood-CA-90304/20345311_zpid/
Apartment for sale,"$1,699,000","3936 Strandway, San Diego, CA 92109",3936 Strandway ,San Diego,CA,92109,32.78803,-117.254284,"1,640",null,null,Multi Family,1938,1 space,$200/month,"$1,036","$1,677,785","$5,500/mo",https://www.zillow.com/homedetails/3936-Strandway-San-Diego-CA-92109/16922497_zpid/
Apartment for sale,"$449,000","214 N Mayo Ave, Compton, CA 90221",214 N Mayo Ave ,Compton,CA,90221,33.897561,-118.212419,"1,176",null,null,Multi Family,1928,3 spaces,null,$382,"$461,577","$2,595/mo",https://www.zillow.com/homedetails/214-N-Mayo-Ave-Compton-CA-90221/21013599_zpid/
Apartment for sale,"$1,398,000","130 W Highland Ave, Sierra Madre, CA 91024",130 W Highland Ave ,Sierra Madre,CA,91024,34.164163,-118.055317,"1,999",null,null,Multi Family,1907,6 spaces,None,$699,"$1,398,006","$2,500/mo",https://www.zillow.com/homedetails/130-W-Highland-Ave-Sierra-Madre-CA-91024/20884830_zpid/
Apartment for sale,"$799,000","11030 Mansel Ave, Inglewood, CA 90304",11030 Mansel Ave ,Inglewood,CA,90304,33.935099,-118.355595,"2,106",null,null,Multi Family,1954,2 spaces,null,$379,"$799,002","$2,600/mo",https://www.zillow.com/homedetails/11030-Mansel-Ave-Inglewood-CA-90304/20346799_zpid/
Apartment for sale,"$625,000","3120 Clay St, Sacramento, CA 95815",3120 Clay St ,Sacramento,CA,95815,38.624668,-121.438597,"4,123",null,null,Multi Family,1925,15 spaces,None,$152,"$625,001","$1,895/mo",https://www.zillow.com/homedetails/3120-Clay-St-Sacramento-CA-95815/26078780_zpid/
Apartment for sale,"$650,000","359 S Pecan St, Los Angeles, CA 90033",359 S Pecan St ,Los Angeles,CA,90033,34.043561,-118.22207,"1,387",null,null,Multi Family,1907,2 spaces,null,$469,"$650,001","$2,500/mo",https://www.zillow.com/homedetails/359-S-Pecan-St-Los-Angeles-CA-90033/20628790_zpid/
Apartment for sale,"$9,800,000","2041 N Vermont Ave, Los Angeles, CA 90027",2041 N Vermont Ave ,Los Angeles,CA,90027,34.108792,-118.291991,"22,582",null,null,Multi Family,1928,No Data,null,$434,null,null,https://www.zillow.com/homedetails/2041-N-Vermont-Ave-Los-Angeles-CA-90027/2079090353_zpid/
Apartment for sale,"$1,375,000","13584 Yakima Rd # 11, Apple Valley, CA 92308",13584 Yakima Rd # 11,Apple Valley,CA,92308,34.498368,-117.194159,"10,100",null,null,Multi Family,1986,9 spaces,None,$136,null,null,https://www.zillow.com/homedetails/13584-Yakima-Rd-11-Apple-Valley-CA-92308/2079761147_zpid/
Apartment for sale,"$3,800,000","1610 S Beverly Glen Blvd, Los Angeles, CA 90024",1610 S Beverly Glen Blvd ,Los Angeles,CA,90024,34.059364,-118.424778,"9,720",null,null,Multi Family,1961,9 spaces,null,$391,null,null,https://www.zillow.com/homedetails/1610-S-Beverly-Glen-Blvd-Los-Angeles-CA-90024/2080615299_zpid/
Apartment for sale,"$11,500,000","2609 Ocean Front Walk, Venice, CA 90291",2609 Ocean Front Walk ,Venice,CA,90291,33.98147,-118.468704,"3,290",null,null,Multi Family,1969,Attached Garage,null,"$3,495",null,null,https://www.zillow.com/homedetails/2609-Ocean-Front-Walk-Venice-CA-90291/20443703_zpid/
Apartment for sale,"$895,000","1214 S Kings Court Dr, Anaheim, CA 92804",1214 S Kings Court Dr ,Anaheim,CA,92804,33.817241,-117.944344,"1,721",null,null,Multi Family,1959,6 spaces,None,$520,"$895,004","$3,200/mo",https://www.zillow.com/homedetails/1214-S-Kings-Court-Dr-Anaheim-CA-92804/25224854_zpid/
Apartment for sale,"$1,295,000","1226 S Highland Ave, Los Angeles, CA 90019",1226 S Highland Ave ,Los Angeles,CA,90019,34.052241,-118.341538,"2,206",null,null,Multi Family,1928,2 spaces,null,$587,"$1,295,002","$2,850/mo",https://www.zillow.com/homedetails/1226-S-Highland-Ave-Los-Angeles-CA-90019/20607520_zpid/
Apartment for sale,"$2,395,000","1500 11th Ave, San Francisco, CA 94122",1500 11th Ave ,San Francisco,CA,94122,37.760012,-122.468,"4,224",null,null,Multi Family,1948,No Data,null,$567,null,null,https://www.zillow.com/homedetails/1500-11th-Ave-San-Francisco-CA-94122/2078939523_zpid/
Apartment for sale,"$1,500,000","2000 Damuth St, Oakland, CA 94602",2000 Damuth St ,Oakland,CA,94602,37.802915,-122.214963,"5,000",null,null,Multi Family,1970,5 spaces,null,$300,null,null,https://www.zillow.com/homedetails/2000-Damuth-St-Oakland-CA-94602/2079007751_zpid/
Apartment for sale,"$1,300,000","1912-16 33rd St, San Diego, CA 92102",1912-16 33rd St ,San Diego,CA,92102,32.725783,-117.123947,"2,010",null,null,Multi Family,1945,No Data,null,$647,"$1,300,008","$2,975/mo",https://www.zillow.com/homedetails/1912-16-33rd-St-San-Diego-CA-92102/295361157_zpid/
Apartment for sale,"$649,000","908 Dornajo Way, Sacramento, CA 95825",908 Dornajo Way ,Sacramento,CA,95825,38.582081,-121.405803,"3,493",null,null,Multi Family,1963,2 spaces,$8/month,$186,"$640,171","$1,395/mo",https://www.zillow.com/homedetails/908-Dornajo-Way-Sacramento-CA-95825/26098377_zpid/
Apartment for sale,"$890,000","3148 Fruitvale Ave, Oakland, CA 94602",3148 Fruitvale Ave ,Oakland,CA,94602,37.796677,-122.217262,"2,513",null,null,Multi Family,1906,5 spaces,null,$354,"$994,703","$2,800/mo",https://www.zillow.com/homedetails/3148-Fruitvale-Ave-Oakland-CA-94602/24769244_zpid/
Apartment for sale,"$1,000,000","2570 Traction Ave, Sacramento, CA 95815",2570 Traction Ave ,Sacramento,CA,95815,38.613611,-121.452327,,null,null,Multi Family,1960,No Data,None,No Data,null,null,https://www.zillow.com/homedetails/2570-Traction-Ave-Sacramento-CA-95815/2078944992_zpid/
Apartment for sale,"$1,699,000","5651 Tilden Ave, Van Nuys, CA 91401",5651 Tilden Ave ,Van Nuys,CA,91401,34.17367,-118.447672,"2,753",null,null,Multi Family,1950,3 spaces,null,$617,"$1,699,008","$2,995/mo",https://www.zillow.com/homedetails/5651-Tilden-Ave-Van-Nuys-CA-91401/19972820_zpid/
Apartment for sale,"$549,000","707 W 70th St, Los Angeles, CA 90044",707 W 70th St ,Los Angeles,CA,90044,33.976208,-118.286273,"3,264",null,null,Multi Family,1923,6 spaces,null,$168,"$549,002","$2,400/mo",https://www.zillow.com/homedetails/707-W-70th-St-Los-Angeles-CA-90044/20934249_zpid/
Apartment for sale,"$2,095,000","172-178 28th St, San Francisco, CA 94131",172-178 28th St ,San Francisco,CA,94131,37.745577,-122.426228,"2,600",null,null,Multi Family,1908,No Data,null,$806,null,null,https://www.zillow.com/homedetails/172-178-28th-St-San-Francisco-CA-94131/2078926511_zpid/
Apartment for sale,"$839,000","8366 La Villa St, Downey, CA 90241",8366 La Villa St ,Downey,CA,90241,33.942065,-118.128903,"1,662",null,null,Multi Family,1945,2 spaces,null,$505,"$834,519","$2,400/mo",https://www.zillow.com/homedetails/8366-La-Villa-St-Downey-CA-90241/21051048_zpid/
Apartment for sale,"$939,000","311 W Regent St, Inglewood, CA 90301",311 W Regent St ,Inglewood,CA,90301,33.964692,-118.360112,"1,871",null,null,Multi Family,1940,3 spaces,None,$502,"$939,003","$2,707/mo",https://www.zillow.com/homedetails/311-W-Regent-St-Inglewood-CA-90301/20335855_zpid/
Apartment for sale,"$349,000","3700 Dean Dr Unit 806, Ventura, CA 93003",3700 Dean Dr Unit 806,Ventura,CA,93003,34.267043,-119.243268,"1,169",null,null,Multi Family,1965,2 spaces,$386/month,$299,"$353,000","$2,205/mo",https://www.zillow.com/homedetails/3700-Dean-Dr-UNIT-806-Ventura-CA-93003/16331271_zpid/
Apartment for sale,"$699,000","520 W 91st St, Los Angeles, CA 90044",520 W 91st St ,Los Angeles,CA,90044,33.953915,-118.283398,"1,877",null,null,Multi Family,1922,4 spaces,null,$372,"$687,274","$2,600/mo",https://www.zillow.com/homedetails/520-W-91st-St-Los-Angeles-CA-90044/20951582_zpid/
Apartment for sale,"$1,195,000","13103 Venice Blvd, Los Angeles, CA 90066",13103 Venice Blvd ,Los Angeles,CA,90066,33.998623,-118.444409,"1,298",null,null,Multi Family,1954,2 spaces,null,$921,"$1,204,101","$3,495/mo",https://www.zillow.com/homedetails/13103-Venice-Blvd-Los-Angeles-CA-90066/20455126_zpid/
Apartment for sale,"$5,495,000","1525 Buena Vis, San Clemente, CA 92672",1525 Buena Vis ,San Clemente,CA,92672,33.430416,-117.630235,"6,970",null,null,Multi Family,1954,16 spaces,None,$788,"$5,187,927","$9,000/mo",https://www.zillow.com/homedetails/1525-Buena-Vis-San-Clemente-CA-92672/25599511_zpid/
